{"next_feature":null,"type":"FeatureCollection","start":0,"features":[{"type":"Feature","id":"a6nrcu26vkst","geometry":{"type":"Point","coordinates":[139.691677093506,35.6895265930799]},"properties":{"city":"Tokyo","geo_score":1.0,"country":"Japan","population":32450000,"geo_precision":"zip"}},{"type":"Feature","id":"a6nrctw2i9yb","geometry":{"type":"Point","coordinates":[126.9997222,37.5663889]},"properties":{"city":"Seoul","geo_score":1.0,"country":"South Korea","population":20550000,"geo_precision":"zip"}},{"type":"Feature","id":"a6nrcttnrpfn","geometry":{"type":"Point","coordinates":[-90.4666667,20.1166667]},"properties":{"city":"Mexio City","geo_score":0.889,"country":"Mexico","population":20450000,"geo_precision":"zip"}},{"type":"Feature","id":"a6nrctx6qc6x","geometry":{"type":"Point","coordinates":[-75.4998978,43.0003472]},"properties":{"city":"New York City","geo_score":0.805,"country":"USA","population":19750000,"geo_precision":"zip"}},{"type":"Feature","id":"a6nrctos0ht1","geometry":{"type":"Point","coordinates":[72.8479385375977,19.0144100168904]},"properties":{"city":"Mumbai","geo_score":1.0,"country":"India","population":19200000,"geo_precision":"zip"}},{"type":"Feature","id":"a6nrctqhgnzh","geometry":{"type":"Point","coordinates":[106.8294444,-6.1744444]},"properties":{"city":"Jakarta","geo_score":1.0,"country":"Indonesia","population":18900000,"geo_precision":"zip"}},{"type":"Feature","id":"a6nrcty44h31","geometry":{"type":"Point","coordinates":[-46.63611111,-23.5475]},"properties":{"city":"Sao Paulo","geo_score":1.0,"country":"Brazil","population":18850000,"geo_precision":"zip"}},{"type":"Feature","id":"a6nrcu2u160d","geometry":{"type":"Point","coordinates":[77.2166667,28.6666667]},"properties":{"city":"Delhi","geo_score":1.0,"country":"India","population":18680000,"geo_precision":"zip"}},{"type":"Feature","id":"a6nrctslchtj","properties":{"city":"Okaka/Kobe","geo_score":0.0,"country":"Japan","population":17350000,"geo_precision":"unmatched"}},{"type":"Feature","id":"a6nrctw8vdgu","geometry":{"type":"Point","coordinates":[121.4580556,31.2222222]},"properties":{"city":"Shanghai ","geo_score":1.0,"country":"China","population":16650000,"geo_precision":"zip"}},{"type":"Feature","id":"a6nrcty1s0uc","geometry":{"type":"Point","coordinates":[120.9822222,14.6041667]},"properties":{"city":"Manila","geo_score":1.0,"country":"Philippines","population":16300000,"geo_precision":"zip"}},{"type":"Feature","id":"a6nrctzbc1q7","geometry":{"type":"Point","coordinates":[-118.2009079,34.3666648]},"properties":{"city":"Los Angeles","geo_score":0.804,"country":"USA","population":15250000,"geo_precision":"zip"}},{"type":"Feature","id":"a6nrctwwdm1w","geometry":{"type":"Point","coordinates":[88.3697222,22.5697222]},"properties":{"city":"Calcutta","geo_score":1.0,"country":"India","population":15100000,"geo_precision":"zip"}},{"type":"Feature","id":"a6nrctwfzagd","geometry":{"type":"Point","coordinates":[37.6155556,55.7522222]},"properties":{"city":"Moscow","geo_score":1.0,"country":"Russia","population":15000000,"geo_precision":"zip"}},{"type":"Feature","id":"a6nrcu3dk75t","geometry":{"type":"Point","coordinates":[31.25,30.05]},"properties":{"city":"Cairo","geo_score":1.0,"country":"Egypt","population":14450000,"geo_precision":"zip"}},{"type":"Feature","id":"a6nrcu1sjnd1","geometry":{"type":"Point","coordinates":[3.3958333,6.4530556]},"properties":{"city":"Lagos","geo_score":1.0,"country":"Nigeria","population":13488000,"geo_precision":"zip"}},{"type":"Feature","id":"a6nrctop41mu","geometry":{"type":"Point","coordinates":[-58.4088134765625,-34.5761256318848]},"properties":{"city":"Buenos Aires","geo_score":1.0,"country":"Argentina","population":13170000,"geo_precision":"zip"}},{"type":"Feature","id":"a6nrctx25zvw","geometry":{"type":"Point","coordinates":[-0.125532746315002,51.5084152563931]},"properties":{"city":"London","geo_score":1.0,"country":"United Kingdom","population":12875000,"geo_precision":"zip"}},{"type":"Feature","id":"a6nrctqlp34w","geometry":{"type":"Point","coordinates":[116.397228240967,39.9074977414405]},"properties":{"city":"Beijing","geo_score":1.0,"country":"China","population":12500000,"geo_precision":"zip"}},{"type":"Feature","id":"a6nrctuj1tsc","geometry":{"type":"Point","coordinates":[67.05,24.8666667]},"properties":{"city":"Karachi","geo_score":1.0,"country":"Pakistan","population":11800000,"geo_precision":"zip"}},{"type":"Feature","id":"a6nrcu3vatmo","geometry":{"type":"Point","coordinates":[90.4086111,23.7230556]},"properties":{"city":"Dhaka","geo_score":1.0,"country":"Bangladesh","population":10979000,"geo_precision":"zip"}},{"type":"Feature","id":"a6nrcu29igg0","geometry":{"type":"Point","coordinates":[-43.2075,-22.90277778]},"properties":{"city":"Rio de Janeiro","geo_score":1.0,"country":"Brazil","population":10556000,"geo_precision":"zip"}},{"type":"Feature","id":"a6nrcu1mu5y3","geometry":{"type":"Point","coordinates":[117.1766667,39.1422222]},"properties":{"city":"Tianjin","geo_score":1.0,"country":"China","population":10556000,"geo_precision":"zip"}},{"type":"Feature","id":"a6nrctpfzj4r","geometry":{"type":"Point","coordinates":[2.3488,48.85341]},"properties":{"city":"Paris","geo_score":1.0,"country":"France","population":9638000,"geo_precision":"zip"}},{"type":"Feature","id":"a6nrctodnc7c","geometry":{"type":"Point","coordinates":[28.9833068847656,41.0350820029997]},"properties":{"city":"Istanbul","geo_score":1.0,"country":"Turkey","population":9413000,"geo_precision":"zip"}},{"type":"Feature","id":"a6nrctr52z0a","geometry":{"type":"Point","coordinates":[-77.05,-12.05]},"properties":{"city":"Lima","geo_score":1.0,"country":"Peru","population":7443000,"geo_precision":"zip"}},{"type":"Feature","id":"a6nrcu4r6bo9","geometry":{"type":"Point","coordinates":[51.4244444,35.6719444]},"properties":{"city":"Tehran","geo_score":1.0,"country":"Iran","population":7380000,"geo_precision":"zip"}},{"type":"Feature","id":"a6nrctv1hxy9","geometry":{"type":"Point","coordinates":[100.5166667,13.75]},"properties":{"city":"Bangkok","geo_score":1.0,"country":"Thailand","population":7221000,"geo_precision":"zip"}},{"type":"Feature","id":"a6nrcty8l6zv","geometry":{"type":"Point","coordinates":[-87.6500523,41.850033]},"properties":{"city":"Chicago","geo_score":0.857,"country":"USA","population":6945000,"geo_precision":"zip"}},{"type":"Feature","id":"a6nrctuawzgb","geometry":{"type":"Point","coordinates":[-74.0833333,4.6]},"properties":{"city":"Bogota","geo_score":0.857,"country":"Colombia","population":6834000,"geo_precision":"zip"}},{"type":"Feature","id":"a6nrctyaplqt","geometry":{"type":"Point","coordinates":[78.4744444,17.3752778]},"properties":{"city":"Hyderbad","geo_score":0.984,"country":"India","population":6833000,"geo_precision":"zip"}},{"type":"Feature","id":"a6nrctqxlcp0","geometry":{"type":"Point","coordinates":[80.2784729003906,13.0878385345075]},"properties":{"city":"Chennai","geo_score":1.0,"country":"India","population":6639000,"geo_precision":"zip"}},{"type":"Feature","id":"a6nrctwaxsid","geometry":{"type":"Point","coordinates":[7.0166667,51.45]},"properties":{"city":"Essen","geo_score":1.0,"country":"Germany","population":6559000,"geo_precision":"zip"}},{"type":"Feature","id":"a6nrctzjbiqj","geometry":{"type":"Point","coordinates":[107.6,16.4666667]},"properties":{"city":"Ho Chi Minh City","geo_score":0.868,"country":"Vietnam","population":6424519,"geo_precision":"zip"}},{"type":"Feature","id":"a6nrcu3e95f0","geometry":{"type":"Point","coordinates":[120.1688889,30.2552778]},"properties":{"city":"Hangzhou","geo_score":1.0,"country":"China","population":6389000,"geo_precision":"zip"}},{"type":"Feature","id":"a6nrctru4r0j","geometry":{"type":"Point","coordinates":[117.7891667,39.2488889]},"properties":{"city":"Hong Kong","geo_score":0.911,"country":"China","population":6097000,"geo_precision":"zip"}},{"type":"Feature","id":"a6nrctxn1x70","geometry":{"type":"Point","coordinates":[74.3436111,31.5497222]},"properties":{"city":"Lahore","geo_score":1.0,"country":"Pakistan","population":6030000,"geo_precision":"zip"}},{"type":"Feature","id":"a6nrctw8p40p","geometry":{"type":"Point","coordinates":[123.4327778,41.7922222]},"properties":{"city":"Shenyang","geo_score":1.0,"country":"China","population":5681000,"geo_precision":"zip"}},{"type":"Feature","id":"a6nrcu33cf2c","geometry":{"type":"Point","coordinates":[125.3227778,43.88]},"properties":{"city":"Changchun","geo_score":1.0,"country":"China","population":5566000,"geo_precision":"zip"}},{"type":"Feature","id":"a6nrcu3maltq","geometry":{"type":"Point","coordinates":[77.6032912731171,12.9762266976805]},"properties":{"city":"Bangalore","geo_score":0.952,"country":"India","population":5544000,"geo_precision":"zip"}},{"type":"Feature","id":"a6nrcu31onj3","geometry":{"type":"Point","coordinates":[126.65,45.75]},"properties":{"city":"Harbin","geo_score":1.0,"country":"China","population":5475000,"geo_precision":"zip"}},{"type":"Feature","id":"a6nrcu4jychd","geometry":{"type":"Point","coordinates":[104.0666667,30.6666667]},"properties":{"city":"Chengdu","geo_score":1.0,"country":"China","population":5293000,"geo_precision":"zip"}},{"type":"Feature","id":"a6nrcts7u415","geometry":{"type":"Point","coordinates":[-70.5665588378906,-33.4262838490987]},"properties":{"city":"Santiago","geo_score":1.0,"country":"Chile","population":5261000,"geo_precision":"zip"}},{"type":"Feature","id":"a6nrcttt7ye6","geometry":{"type":"Point","coordinates":[113.25,23.1166667]},"properties":{"city":"Guangzhou","geo_score":1.0,"country":"China","population":5162000,"geo_precision":"zip"}},{"type":"Feature","id":"a6nrctyvdsrz","geometry":{"type":"Point","coordinates":[37.55,59.15]},"properties":{"city":"St. Petersburg","geo_score":0.881,"country":"Russia","population":5132000,"geo_precision":"zip"}},{"type":"Feature","id":"a6nrctvq06w4","geometry":{"type":"Point","coordinates":[15.315,-4.3297222]},"properties":{"city":"Kinshasa","geo_score":0.857,"country":"DRC","population":5068000,"geo_precision":"zip"}},{"type":"Feature","id":"a6nrcu1fi5ua","geometry":{"type":"Point","coordinates":[44.3938889,33.3386111]},"properties":{"city":"Baghdad","geo_score":0.857,"country":"Irag","population":4796000,"geo_precision":"zip"}},{"type":"Feature","id":"a6nrctqevw45","geometry":{"type":"Point","coordinates":[116.9972222,36.6683333]},"properties":{"city":"Jinan","geo_score":1.0,"country":"China","population":4789000,"geo_precision":"zip"}},{"type":"Feature","id":"a6nrctyxhr1h","geometry":{"type":"Point","coordinates":[-95.3632715,29.7632836]},"properties":{"city":"Houston","geo_score":0.857,"country":"USA","population":4750000,"geo_precision":"zip"}},{"type":"Feature","id":"a6nrctqqisag","geometry":{"type":"Point","coordinates":[-79.416304194,43.700113788]},"properties":{"city":"Toronto","geo_score":1.0,"country":"Canada","population":4657000,"geo_precision":"zip"}}],"sort":null,"count":50,"limit":null}