{"next_feature":null,"type":"FeatureCollection","start":0,"features":[{"type":"Feature","id":"a65vjsvgbl5c","geometry":{"type":"Point","coordinates":[-73.717186,41.127257]},"properties":{"city":"Armonk","lon":-73.717186,"zip":10504,"librarysystem":"Westchester Library System","phone":"Telephone: (914) 273-3887","address":"19 Whippoorwill Road East","lat":41.127257,"libraryname":"(Armonk) North Castle Public Library","state":"NY"}},{"type":"Feature","id":"a65vjt6694p8","geometry":{"type":"Point","coordinates":[-73.945013,41.249984]},"properties":{"city":"Montrose","lon":-73.945013,"zip":10548,"librarysystem":"Westchester Library System","phone":"Telephone: (914) 739-5654","address":"185 Kings Ferry Road","lat":41.249984,"libraryname":"(Montrose) Hendrick Hudson Free Library","state":"NY"}},{"type":"Feature","id":"a65vjszb770o","geometry":{"type":"Point","coordinates":[-73.597115,41.328976]},"properties":{"city":"North Salem","lon":-73.597115,"zip":10560,"librarysystem":"Westchester Library System","phone":"Telephone: (914) 669-5161","address":"276 Titicus Road (Route 116)","lat":41.328976,"libraryname":"(North Salem)Ruth Keeler Memorial Library","state":"NY"}},{"type":"Feature","id":"a65vjt9gfhdw","geometry":{"type":"Point","coordinates":[-73.922107,41.290464]},"properties":{"city":"Peekskill","lon":-73.922107,"zip":10566,"librarysystem":"Westchester Library System","phone":"Telephone: (914) 737-1212","address":"4 Nelson Avenue","lat":41.290464,"libraryname":"(Peekskill) The Field Library","state":"NY"}},{"type":"Feature","id":"a65vjt8s3ykn","geometry":{"type":"Point","coordinates":[-73.814012,40.902657]},"properties":{"city":"Pelham","lon":-73.814012,"zip":10803,"librarysystem":"Westchester Library System","phone":"Telephone: (914) 738-1234","address":"530 Colonial Avenue","lat":40.902657,"libraryname":"(Pelham) Town of Pelham Library","state":"NY"}},{"type":"Feature","id":"a65vjt54pznj","geometry":{"type":"Point","coordinates":[-73.574415,41.210262]},"properties":{"city":"Pound Ridge","lon":-73.574415,"zip":10576,"librarysystem":"Westchester Library System","phone":"Telephone: (914) 764-5085","address":"271 Westchester Avenue","lat":41.210262,"libraryname":"(Pound Ridge)Hiram Halle Memorial Library","state":"NY"}},{"type":"Feature","id":"a65vjt1madsy","geometry":{"type":"Point","coordinates":[-73.857956,41.080498]},"properties":{"city":"Tarrytown","lon":-73.857956,"zip":10591,"librarysystem":"Westchester Library System","phone":"Telephone: (914) 631-7734","address":"121 North Broadway","lat":41.080498,"libraryname":"(Tarrytown) The Warner Library","state":"NY"}},{"type":"Feature","id":"a65vjta8far7","geometry":{"type":"Point","coordinates":[-73.829287,41.329675]},"properties":{"city":"Shrub Oak","lon":-73.829287,"zip":10588,"librarysystem":"Westchester Library System","phone":"Telephone: (914) 245-5262","address":"1130 Main Street","lat":41.329675,"libraryname":"(Yorktown) John C. Hart Memorial Library","state":"NY"}},{"type":"Feature","id":"a65vjsw1s7mi","geometry":{"type":"Point","coordinates":[-73.953346,40.802833]},"properties":{"city":"New York","lon":-73.953346,"zip":10026,"librarysystem":"The New York Public Library","phone":"(212) 666-9393 ","address":"203 West 115th Street ","lat":40.802833,"libraryname":"115th Street Branch","state":"NY"}},{"type":"Feature","id":"a65vjt3mdfro","geometry":{"type":"Point","coordinates":[-73.935219,40.803303]},"properties":{"city":"New York","lon":-73.935219,"zip":10035,"librarysystem":"The New York Public Library","phone":"(212) 534-5050 ","address":"224 East 125th Street ","lat":40.803303,"libraryname":"125th Street Branch","state":"NY"}},{"type":"Feature","id":"a65vjswk8s78","geometry":{"type":"Point","coordinates":[-73.968955,40.761887]},"properties":{"city":"New York","lon":-73.968955,"zip":10022,"librarysystem":"The New York Public Library","phone":"(212) 759-7358 ","address":"127 East 58th Street","lat":40.761887,"libraryname":"58th Street Branch","state":"NY"}},{"type":"Feature","id":"a65vjt3j3sbu","geometry":{"type":"Point","coordinates":[-73.959988,40.765163]},"properties":{"city":"New York","lon":-73.959988,"zip":10065,"librarysystem":"The New York Public Library","phone":"(212) 734-1717","address":"328 East 67th Street ","lat":40.765163,"libraryname":"67th Street Branch","state":"NY"}},{"type":"Feature","id":"a65vjtamnult","geometry":{"type":"Point","coordinates":[-73.952119,40.78621]},"properties":{"city":"New York","lon":-73.952119,"zip":10128,"librarysystem":"The New York Public Library","phone":"(212) 289-0908 ","address":"112 East 96th Street ","lat":40.78621,"libraryname":"96th Street Branch","state":"NY"}},{"type":"Feature","id":"a65vjsz6zb0a","geometry":{"type":"Point","coordinates":[-76.005985,43.860635]},"properties":{"city":"ADAMS CENTER","lon":-76.005985,"zip":13606,"librarysystem":"ADAMS CENTER FREE LIBRARY","phone":"PHONE: 583-5501","address":"18267 STATE ROUTE 177","lat":43.860635,"libraryname":"ADAMS CENTER FREE LIBRARY","state":"NY"}},{"type":"Feature","id":"a65vjsxaa06s","geometry":{"type":"Point","coordinates":[-77.233966,42.10458]},"properties":{"city":"Addison ","lon":-77.233966,"zip":14801,"librarysystem":"Addison Public Library","phone":"Phone: 607-359-3888","address":"6 South Street","lat":42.10458,"libraryname":"Addison Public Library","state":"NY "}},{"type":"Feature","id":"a65vjswqiyyn","geometry":{"type":"Point","coordinates":[-73.930436,41.700805]},"properties":{"city":"Poughkeepsie","lon":-73.930436,"zip":12601,"librarysystem":"Mid-Hudson Library System","phone":"(845)485-3445","address":"93 Market Street","lat":41.700805,"libraryname":"Adriance Memorial Library","state":"NY"}},{"type":"Feature","id":"a65vjt0c43z7","geometry":{"type":"Point","coordinates":[-75.528244,42.225291]},"properties":{"city":"Afton","lon":-75.528244,"zip":13730,"librarysystem":"Four County Library System","phone":"607-639-1212","address":"105A Main Street","lat":42.225291,"libraryname":"Afton Free Library","state":"NY"}},{"type":"Feature","id":"a65vjt02zc1t","geometry":{"type":"Point","coordinates":[-73.943691,40.794352]},"properties":{"city":"New York","lon":-73.943691,"zip":10029,"librarysystem":"The New York Public Library","phone":"(212) 534-2930 ","address":"174 East 110th Street ","lat":40.794352,"libraryname":"Aguilar Branch","state":"NY"}},{"type":"Feature","id":"a65vjt5jy21j","geometry":{"type":"Point","coordinates":[-79.442703,42.388364]},"properties":{"city":"Brocton","lon":-79.442703,"zip":14716,"librarysystem":"Chautauqua - Cattaraugus Library System","phone":"Phone:  (716) 792-9418","address":"37 West Main Street","lat":42.388364,"libraryname":"Ahira Hall Memorial Library ","state":"NY"}},{"type":"Feature","id":"a65vjsyvu6a0","geometry":{"type":"Point","coordinates":[-74.693618,44.978448]},"properties":{"city":"Hogansburg","lon":-74.693618,"zip":13655,"librarysystem":"Clinton-Essex-Franklin Library System","phone":"(518) 358-2240","address":"321 Route 37","lat":44.978448,"libraryname":"Akwesasne Library ","state":"NY"}},{"type":"Feature","id":"a65vjta54onm","geometry":{"type":"Point","coordinates":[-73.739278,42.674018]},"properties":{"city":"Albany","lon":-73.739278,"zip":12204,"librarysystem":"Upper Hudson Library System","phone":"(518) 463-1581","address":"616 North Pearl Street","lat":42.674018,"libraryname":"Albany Public Library - North Albany Branch ","state":"NY"}},{"type":"Feature","id":"a65vjsv60b9u","geometry":{"type":"Point","coordinates":[-73.785552,42.639905]},"properties":{"city":"Albany","lon":-73.785552,"zip":12209,"librarysystem":"Upper Hudson Library System","phone":"(518) 463-0254","address":"485 Delaware Avenue","lat":42.639905,"libraryname":"Albany Public Library- Delaware Branch ","state":"NY"}},{"type":"Feature","id":"a65vjt6njzbj","geometry":{"type":"Point","coordinates":[-73.758059,42.64123]},"properties":{"city":"Albany","lon":-73.758059,"zip":12202,"librarysystem":"Upper Hudson Library System","phone":"(518) 472-9485","address":"Schuyler and Broad Streets","lat":42.64123,"libraryname":"Albany Public Library- John A. Howe Branch ","state":"NY"}},{"type":"Feature","id":"a65vjt10inb8","geometry":{"type":"Point","coordinates":[-73.761829,42.656082]},"properties":{"city":"Albany","lon":-73.761829,"zip":12210,"librarysystem":"Upper Hudson Library System","phone":"(518) 427-4300","address":"161 Washington Avenue","lat":42.656082,"libraryname":"Albany Public Library- Main Branch   ","state":"NY"}},{"type":"Feature","id":"a65vjt1uj3eq","geometry":{"type":"Point","coordinates":[-73.792581,42.653796]},"properties":{"city":"Albany","lon":-73.792581,"zip":12208,"librarysystem":"Upper Hudson Library System","phone":"(518) 482-6661","address":"369 New Scotland Avenue","lat":42.653796,"libraryname":"Albany Public Library- New Scotland Branch ","state":"NY"}},{"type":"Feature","id":"a65vjt0zj7ob","geometry":{"type":"Point","coordinates":[-73.791352,42.666511]},"properties":{"city":"Albany","lon":-73.791352,"zip":12203,"librarysystem":"Upper Hudson Library System","phone":"(518) 482-7911","address":"517 Western Avenue","lat":42.666511,"libraryname":"Albany Public Library- Pine Hills Branch ","state":"NY"}},{"type":"Feature","id":"a65vjsv8iuob","geometry":{"type":"Point","coordinates":[-74.356912,41.259741]},"properties":{"city":"Warwick","lon":-74.356912,"zip":10990,"librarysystem":"Ramapo Catskill Library System","phone":"Phone: 845-986-1047","address":"2 Colonial Avenue","lat":41.259741,"libraryname":"Albert Wisner Public Library","state":"NY"}},{"type":"Feature","id":"a65vjsxcv9ek","geometry":{"type":"Point","coordinates":[-78.493171,42.90031]},"properties":{"city":"Alden","lon":-78.493171,"zip":14004,"librarysystem":"BUFFALO AND ERIE COUNTY PUBLIC LIBRARY","phone":"716-937-7082","address":"13280 Broadway","lat":42.90031,"libraryname":"Alden (Ewell) Free Library","state":"NY"}},{"type":"Feature","id":"a65vjswuvvgs","geometry":{"type":"Point","coordinates":[-75.994115,40.328212]},"properties":{"city":"Bloomfield","lon":-75.994115,"zip":14469,"librarysystem":"Pioneer Library System  ","phone":"Phone: 585-229-5636","address":"3818 Allens Hill Road","lat":40.328212,"libraryname":"Allens Hill Free Library  ","state":"NY"}},{"type":"Feature","id":"a65vjt74rmba","geometry":{"type":"Point","coordinates":[-73.863337,40.866123]},"properties":{"city":"New York","lon":-73.863337,"zip":10467,"librarysystem":"The New York Public Library","phone":"(718) 881-4240 ","address":"2740 Barnes Avenue","lat":40.866123,"libraryname":"Allerton Branch","state":"NY"}},{"type":"Feature","id":"a65vjt1q5fu8","geometry":{"type":"Point","coordinates":[-74.006195,42.699181]},"properties":{"city":"Altamont","lon":-74.006195,"zip":12009,"librarysystem":"Upper Hudson Library System","phone":"(518) 861-7239","address":"105 Park Street P.O. Box 662","lat":42.699181,"libraryname":"Altamont Free Library ","state":"NY"}},{"type":"Feature","id":"a65vjsxbv1zs","geometry":{"type":"Point","coordinates":[-73.659051,44.875196]},"properties":{"city":"Altona","lon":-73.659051,"zip":12910,"librarysystem":"Clinton-Essex-Franklin Library System","phone":"(518) 236-7621","address":"3124 Rt. 191","lat":44.875196,"libraryname":"Altona Reading Center","state":"NY"}},{"type":"Feature","id":"a65vjt0pvnex","geometry":{"type":"Point","coordinates":[-72.118373,40.98153]},"properties":{"city":"Amagansett","lon":-72.118373,"zip":11930,"librarysystem":"Suffolk County Public Libraries","phone":"(631) 267-3810","address":"215 Main Street, Box 2550","lat":40.98153,"libraryname":"Amagansett Free Library","state":"NY"}},{"type":"Feature","id":"a65vjsw6z0jz","geometry":{"type":"Point","coordinates":[-73.552729,41.84857]},"properties":{"city":"Amenia","lon":-73.552729,"zip":12501,"librarysystem":"Mid-Hudson Library System","phone":"845.373.8273","address":"Main Street","lat":41.84857,"libraryname":"Amenia Free Library","state":"NY"}},{"type":"Feature","id":"a65vjt541boz","geometry":{"type":"Point","coordinates":[-78.781874,43.01599]},"properties":{"city":"Amherst","lon":-78.781874,"zip":14228,"librarysystem":"BUFFALO AND ERIE COUNTY PUBLIC LIBRARY","phone":"716-689-4922 (phone)","address":"350 John James Audubon Parkway","lat":43.01599,"libraryname":"Amherst Main Library at Audubon","state":"NY"}},{"type":"Feature","id":"a65vjt50u0hz","geometry":{"type":"Point","coordinates":[-78.739644,42.999635]},"properties":{"city":"Williamsville","lon":-78.739644,"zip":14221,"librarysystem":"BUFFALO AND ERIE COUNTY PUBLIC LIBRARY","phone":"716-688-4955","address":"770 Hopkins Road","lat":42.999635,"libraryname":"Amherst Public Library Clearfield Branch","state":"NY"}},{"type":"Feature","id":"a65vjswza11t","geometry":{"type":"Point","coordinates":[-78.779369,42.962137]},"properties":{"city":"Snyder","lon":-78.779369,"zip":14226,"librarysystem":"BUFFALO AND ERIE COUNTY PUBLIC LIBRARY","phone":"716-839-0700","address":"4622 Main Street","lat":42.962137,"libraryname":"Amherst Public Library Eggertsville-Snyder Branch","state":"NY"}},{"type":"Feature","id":"a65vjt679fk7","geometry":{"type":"Point","coordinates":[-78.745076,42.962755]},"properties":{"city":"Williamsville","lon":-78.745076,"zip":14221,"librarysystem":"BUFFALO AND ERIE COUNTY PUBLIC LIBRARY","phone":"716-632-6176","address":"5571 Main Street","lat":42.962755,"libraryname":"Amherst Public Library Williamsville Branch","state":"NY"}},{"type":"Feature","id":"a65vjsyd0zw8","geometry":{"type":"Point","coordinates":[-73.418534,40.678565]},"properties":{"city":"Amityville","lon":-73.418534,"zip":11701,"librarysystem":"Suffolk County Public Libraries","phone":"(631) 264-0567","address":"Corner of Oak & John Streets","lat":40.678565,"libraryname":"Amityville Public Library","state":"NY"}},{"type":"Feature","id":"a65vjt20gwp4","geometry":{"type":"Point","coordinates":[-74.190877,42.937474]},"properties":{"city":"Amsterdam","lon":-74.190877,"zip":12010,"librarysystem":"Mohawk Valley Library System","phone":"842-1080 ","address":"28 Church St.","lat":42.937474,"libraryname":"Amsterdam Free Library","state":"NY"}},{"type":"Feature","id":"a65vjt1qmjna","geometry":{"type":"Point","coordinates":[-79.167511,42.542706]},"properties":{"city":"Silver Creek","lon":-79.167511,"zip":14136,"librarysystem":"Chautauqua - Cattaraugus Library System","phone":"(716) 934-3468","address":"43 Main ","lat":42.542706,"libraryname":"Anderson Lee Library","state":"NY"}},{"type":"Feature","id":"a65vjsxhm4a5","geometry":{"type":"Point","coordinates":[-74.782128,42.190405]},"properties":{"city":"Andes","lon":-74.782128,"zip":13731,"librarysystem":"Four County Library System","phone":"845-676-3333","address":"242 Main Street","lat":42.190405,"libraryname":"Andes Public Library","state":"NY"}},{"type":"Feature","id":"a65vjt8jlcr9","geometry":{"type":"Point","coordinates":[-73.992373,40.740121]},"properties":{"city":"New York","lon":-73.992373,"zip":10011,"librarysystem":"The New York Public Library","phone":"(212) 206-5400","address":"40 West 20th Street","lat":40.740121,"libraryname":"Andrew Heiskell Braille & Talking Book Library","state":"NY"}},{"type":"Feature","id":"a65vjt1gfrld","geometry":{"type":"Point","coordinates":[-79.027884,42.639064]},"properties":{"city":"Angola","lon":-79.027884,"zip":14006,"librarysystem":"BUFFALO AND ERIE COUNTY PUBLIC LIBRARY","phone":"716-549-1271","address":"34 North Main Street","lat":42.639064,"libraryname":"Angola Public Library","state":"NY"}},{"type":"Feature","id":"a65vjt9kmq94","geometry":{"type":"Point","coordinates":[-76.151914,42.067962]},"properties":{"city":"Apalachin","lon":-76.151914,"zip":13732,"librarysystem":"Finger Lakes Library System","phone":"(607) 625-3333","address":"719 Main Street","lat":42.067962,"libraryname":"Apalachin Reading Center","state":"NY"}},{"type":"Feature","id":"a65vjt7fxvcp","geometry":{"type":"Point","coordinates":[-75.150008,39.921796]},"properties":{"city":"Arcade","lon":-75.150008,"zip":14009,"librarysystem":"Pioneer Library System  ","phone":"Phone: 585-492-1297","address":"365 W Main Street","lat":39.921796,"libraryname":"Arcade Free Library  ","state":"NY"}},{"type":"Feature","id":"a65vjt2hd3or","geometry":{"type":"Point","coordinates":[-73.844797,41.012129]},"properties":{"city":"Ardsley","lon":-73.844797,"zip":10502,"librarysystem":"Westchester Library System","phone":"Telephone: (914) 693-6636","address":"9 American Legion Drive","lat":41.012129,"libraryname":"Ardsley Public Library","state":"NY"}},{"type":"Feature","id":"a65vjt9naxql","geometry":{"type":"Point","coordinates":[-73.489472,43.238305]},"properties":{"city":"Argyle","lon":-73.489472,"zip":12809,"librarysystem":"Southern Adirondack Library System","phone":"(518) 638-8911","address":"21 Sheridan Street","lat":43.238305,"libraryname":"Argyle Free Library","state":"NY"}},{"type":"Feature","id":"a65vjtahos4y","geometry":{"type":"Point","coordinates":[-73.887235,40.680597]},"properties":{"city":"Brooklyn","lon":-73.887235,"zip":11207,"librarysystem":"Brooklyn Public Library ","phone":"t. 718-277-6105","address":"203 Arlington Ave. at Warwick St..","lat":40.680597,"libraryname":"Arlington","state":"NY"}},{"type":"Feature","id":"a65vjsz9s351","geometry":{"type":"Point","coordinates":[-73.900555,41.694585]},"properties":{"city":"Poughkeepsie","lon":-73.900555,"zip":12603,"librarysystem":"Mid-Hudson Library System","phone":"(845)454-9301","address":"504 Haight Avenue","lat":41.694585,"libraryname":"Arlington Branch Library","state":"NY"}},{"type":"Feature","id":"a65vjsw8q24n","geometry":{"type":"Point","coordinates":[-77.641567,43.142339]},"properties":{"city":"Rochester","lon":-77.641567,"zip":14619,"librarysystem":"Monroe County Library System","phone":"(585) 428-8214","address":"310 Arnett Boulevard","lat":43.142339,"libraryname":"Arnett Branch Library","state":"NY"}},{"type":"Feature","id":"a65vjtb15tks","geometry":{"type":"Point","coordinates":[-80.030588,40.47631]},"properties":{"city":"Arverne","lon":-80.030588,"zip":11692,"librarysystem":"Queens Library","phone":"(718)-634-4784","address":"312 Beach 54 Street","lat":40.47631,"libraryname":"Arverne","state":"NY"}},{"type":"Feature","id":"a65vjsvt3uwv","geometry":{"type":"Point","coordinates":[-73.585883,42.8984]},"properties":{"city":"Schaghticoke","lon":-73.585883,"zip":12154,"librarysystem":"Upper Hudson Library System","phone":"(518) 753-4344","address":"136 Main Street","lat":42.8984,"libraryname":"Arvilla E. Diver Memorial Library (Schaghticoke) ","state":"NY"}},{"type":"Feature","id":"a65vjsvss3fa","geometry":{"type":"Point","coordinates":[-79.374988,42.094995]},"properties":{"city":"Ashville","lon":-79.374988,"zip":14710,"librarysystem":"Chautauqua - Cattaraugus Library System","phone":"Tel: (716) 763-9906","address":"2200 North Maple Street","lat":42.094995,"libraryname":"Ashville Free Library","state":"NY"}},{"type":"Feature","id":"a65vjtb6ifi2","geometry":{"type":"Point","coordinates":[-76.261437,41.66688]},"properties":{"city":"Long Island City","lon":-76.261437,"zip":11102,"librarysystem":"Queens Library","phone":"(718) 278-2220","address":"14-01 Astoria Boulevard","lat":41.66688,"libraryname":"Astoria","state":"NY"}},{"type":"Feature","id":"a65vjt0rdq47","geometry":{"type":"Point","coordinates":[-73.694409,44.44205]},"properties":{"city":"AuSable Forks","lon":-73.694409,"zip":12912,"librarysystem":"Clinton-Essex-Franklin Library System","phone":"(518) 647-5596","address":"9 Church Lane","lat":44.44205,"libraryname":"AuSable Forks Free Library","state":"NY"}},{"type":"Feature","id":"a65vjt8l4sof","geometry":{"type":"Point","coordinates":[-75.233485,39.995021]},"properties":{"city":"Flushing","lon":-75.233485,"zip":11358,"librarysystem":"Queens Library","phone":"(718) 352-2027","address":"25-55 Francis Lewis Boulevard","lat":39.995021,"libraryname":"Auburndale","state":"NY"}},{"type":"Feature","id":"a65vjt81vi90","geometry":{"type":"Point","coordinates":[-76.702052,42.753585]},"properties":{"city":"Aurora","lon":-76.702052,"zip":13026,"librarysystem":"Finger Lakes Library System","phone":"Phone: (315) 364-8074","address":"370 Main Street","lat":42.753585,"libraryname":"Aurora Free Library","state":"NY"}},{"type":"Feature","id":"a65vjsvekz9p","geometry":{"type":"Point","coordinates":[-78.614481,42.768068]},"properties":{"city":"East Aurora","lon":-78.614481,"zip":14052,"librarysystem":"BUFFALO AND ERIE COUNTY PUBLIC LIBRARY","phone":"716-652-4440","address":"550 Main Street","lat":42.768068,"libraryname":"Aurora Town Public Library","state":"NY"}},{"type":"Feature","id":"a65vjt1ylg3d","geometry":{"type":"Point","coordinates":[-75.579625,41.477526]},"properties":{"city":"Avon","lon":-75.579625,"zip":14414,"librarysystem":"Pioneer Library System  ","phone":"Phone: 585-226-8461","address":"143 Genesee Street","lat":41.477526,"libraryname":"Avon Free Library ","state":"NY"}},{"type":"Feature","id":"a65vjt3p21a8","geometry":{"type":"Point","coordinates":[-73.611445,40.652273]},"properties":{"city":"Baldwin","lon":-73.611445,"zip":11510,"librarysystem":"Nassau Library System","phone":"223-6228 ","address":"2385 Grand Ave ","lat":40.652273,"libraryname":"BALDWIN PUBLIC LIBRARY","state":"NY"}},{"type":"Feature","id":"a65vjt0ixkwm","geometry":{"type":"Point","coordinates":[-73.566327,40.907863]},"properties":{"city":"Bayville","lon":-73.566327,"zip":11709,"librarysystem":"Nassau Library System","phone":"628-2765","address":"34 School Street ","lat":40.907863,"libraryname":"BAYVILLE FREE LIBRARY","state":"NY"}},{"type":"Feature","id":"a65vjsvcaj41","geometry":{"type":"Point","coordinates":[-73.548699,40.69781]},"properties":{"city":"Bellmore","lon":-73.548699,"zip":11710,"librarysystem":"Nassau Library System","phone":"785-2990 ","address":"2288 Bedford Ave. ","lat":40.69781,"libraryname":"BELLMORE MEMORIAL LIBRARY","state":"NY"}},{"type":"Feature","id":"a65vjt3yb9p7","geometry":{"type":"Point","coordinates":[-73.477409,40.743116]},"properties":{"city":"Bethpage","lon":-73.477409,"zip":11714,"librarysystem":"Nassau Library System","phone":"931-3907 ","address":"47 Powell Avenue ","lat":40.743116,"libraryname":"BETHPAGE PUBLIC LIBRARY","state":"NY"}},{"type":"Feature","id":"a65vjt85ijwh","geometry":{"type":"Point","coordinates":[-73.32571,40.694953]},"properties":{"city":"Babylon","lon":-73.32571,"zip":11702,"librarysystem":"Suffolk County Public Libraries","phone":"(631) 669-1624","address":"24 South Carll Ave","lat":40.694953,"libraryname":"Babylon Public Library","state":"NY"}},{"type":"Feature","id":"a65vjszzjy6r","geometry":{"type":"Point","coordinates":[-75.47867,42.293923]},"properties":{"city":"Bainbridge","lon":-75.47867,"zip":13733,"librarysystem":"Four County Library System","phone":"607-967-5305","address":"13 North Main Street","lat":42.293923,"libraryname":"Bainbridge Free Library","state":"NY"}},{"type":"Feature","id":"a65vjswmr8e6","geometry":{"type":"Point","coordinates":[-75.121373,40.021255]},"properties":{"city":"Jamaica","lon":-75.121373,"zip":11436,"librarysystem":"Queens Library","phone":"(718) 529-1590","address":"117-11 Sutphin Boulevard","lat":40.021255,"libraryname":"Baisley Park","state":"NY"}},{"type":"Feature","id":"a65vjsx03wv8","geometry":{"type":"Point","coordinates":[-72.735094,40.958321]},"properties":{"city":"Calverton","lon":-72.735094,"zip":11933,"librarysystem":"Suffolk County Public Libraries","phone":"(631) 727-8765","address":"4 Warner Drive","lat":40.958321,"libraryname":"Baiting Hollow Free Library","state":"NY"}},{"type":"Feature","id":"a65vjszi2xmw","geometry":{"type":"Point","coordinates":[-75.402118,40.057344]},"properties":{"city":"Baldwinsville","lon":-75.402118,"zip":13027,"librarysystem":"Onondaga County Public Libraries","phone":"(315) 635-5631","address":"33 E. Genesee St.","lat":40.057344,"libraryname":"Baldwinsville Public Library","state":"NY"}},{"type":"Feature","id":"a65vjt1mnsrz","geometry":{"type":"Point","coordinates":[-73.848877,43.001424]},"properties":{"city":"Ballston Spa","lon":-73.848877,"zip":12020,"librarysystem":"Southern Adirondack Library System","phone":"(518) 885-5022","address":"21 Milton Avenue","lat":43.001424,"libraryname":"Ballston Spa Public Library","state":"NY"}},{"type":"Feature","id":"a65vjt9wj5q9","geometry":{"type":"Point","coordinates":[-75.189409,43.27489]},"properties":{"city":"Barneveld","lon":-75.189409,"zip":13304,"librarysystem":"Mid-York Library System","phone":"(315) 896-2096","address":"Boon Street","lat":43.27489,"libraryname":"Barneveld Free Library Association  ","state":"NY"}},{"type":"Feature","id":"a65vjt0tai4n","geometry":{"type":"Point","coordinates":[-74.029549,40.633924]},"properties":{"city":"Brooklyn","lon":-74.029549,"zip":11209,"librarysystem":"Brooklyn Public Library ","phone":"t. 718-748-5709","address":"7223 Ridge Blvd. at 73rd St.","lat":40.633924,"libraryname":"Bay Ridge","state":"NY"}},{"type":"Feature","id":"a65vjt90k45l","geometry":{"type":"Point","coordinates":[-73.270224,40.73035]},"properties":{"city":"Brightwaters","lon":-73.270224,"zip":11718,"librarysystem":"Suffolk County Public Libraries","phone":"(631) 665-4350","address":"One South Country Road","lat":40.73035,"libraryname":"Bay Shore-Brightwaters Public Library","state":"NY"}},{"type":"Feature","id":"a65vjtamnttf","geometry":{"type":"Point","coordinates":[-75.83799,41.310899]},"properties":{"city":"Bayside","lon":-75.83799,"zip":11360,"librarysystem":"Queens Library","phone":"(718) 423-7004","address":"18-36 Bell Boulevard","lat":41.310899,"libraryname":"Bay Terrace","state":"NY"}},{"type":"Feature","id":"a65vjt5qylwy","geometry":{"type":"Point","coordinates":[-73.825959,40.87043]},"properties":{"city":"New York","lon":-73.825959,"zip":10475,"librarysystem":"The New York Public Library","phone":"(718) 379-6700 ","address":"2049 Asch Loop North","lat":40.87043,"libraryname":"Baychester Branch","state":"NY"}},{"type":"Feature","id":"a65vjt1tl3bs","geometry":{"type":"Point","coordinates":[-73.03665,40.749903]},"properties":{"city":"Blue Point","lon":-73.03665,"zip":11715,"librarysystem":"Suffolk County Public Libraries","phone":"(631) 363-6133","address":"203 Blue Point Avenue","lat":40.749903,"libraryname":"Bayport-Blue Point Public Library","state":"NY"}},{"type":"Feature","id":"a65vjt4x1x3p","geometry":{"type":"Point","coordinates":[-75.958586,40.335105]},"properties":{"city":"Bayside","lon":-75.958586,"zip":11361,"librarysystem":"Queens Library","phone":"(718) 229-1834","address":"214-20 Northern Boulevard","lat":40.335105,"libraryname":"Bayside","state":"NY"}},{"type":"Feature","id":"a65vjt5f9h1x","geometry":{"type":"Point","coordinates":[-75.970182,40.796357]},"properties":{"city":"Syracuse","lon":-75.970182,"zip":13205,"librarysystem":"Onondaga County Public Libraries","phone":"(315) 435-3395","address":"2111 S. Salina St.","lat":40.796357,"libraryname":"Beauchamp Branch Library ","state":"NY"}},{"type":"Feature","id":"a65vjt0d9n22","geometry":{"type":"Point","coordinates":[-73.955929,40.681637]},"properties":{"city":"Brooklyn","lon":-73.955929,"zip":11238,"librarysystem":"Brooklyn Public Library ","phone":"t. 718-623-0012","address":"496 Franklin Avenue","lat":40.681637,"libraryname":"Bedford","state":"NY"}},{"type":"Feature","id":"a65vjswosstz","geometry":{"type":"Point","coordinates":[-73.642374,41.202715]},"properties":{"city":"Bedford","lon":-73.642374,"zip":10506,"librarysystem":"Westchester Library System","phone":"Telephone: (914) 234-3570","address":"Village Green","lat":41.202715,"libraryname":"Bedford Free Library","state":"NY"}},{"type":"Feature","id":"a65vjt3p0yka","geometry":{"type":"Point","coordinates":[-73.700127,41.235527]},"properties":{"city":"Bedford Hills","lon":-73.700127,"zip":10507,"librarysystem":"Westchester Library System","phone":"Telephone: (914) 666-6472","address":"26 Main Street","lat":41.235527,"libraryname":"Bedford Hills Library","state":"NY"}},{"type":"Feature","id":"a65vjt3m22wf","geometry":{"type":"Point","coordinates":[-73.955929,40.681637]},"properties":{"city":"Brooklyn","lon":-73.955929,"zip":11238,"librarysystem":"Brooklyn Public Library ","phone":"t. 718-623-2134","address":"496 Franklin Avenue","lat":40.681637,"libraryname":"Bedford Learning Center","state":"NY"}},{"type":"Feature","id":"a65vjt1gbl0s","geometry":{"type":"Point","coordinates":[-73.690164,41.611401]},"properties":{"city":"Poughquag","lon":-73.690164,"zip":12570,"librarysystem":"Mid-Hudson Library System","phone":"(845) 724-3414 ","address":"11 Town Center Blvd.","lat":41.611401,"libraryname":"Beekman Library","state":"NY"}},{"type":"Feature","id":"a65vjt2de5st","geometry":{"type":"Point","coordinates":[-73.351748,44.31026]},"properties":{"city":"Essex","lon":-73.351748,"zip":12936,"librarysystem":"Clinton-Essex-Franklin Library System","phone":"(518) 963-8079","address":"Main St","lat":44.31026,"libraryname":"Belden-Noble Memorial Library","state":"NY"}},{"type":"Feature","id":"a65vjt25c4j8","geometry":{"type":"Point","coordinates":[-79.564898,40.604005]},"properties":{"city":"Nunda","lon":-79.564898,"zip":14517,"librarysystem":"Pioneer Library System  ","phone":"Phone: 585-468-2266","address":"16 East Street","lat":40.604005,"libraryname":"Bell Memorial Library  ","state":"NY"}},{"type":"Feature","id":"a65vjtabkkjb","geometry":{"type":"Point","coordinates":[-74.842627,40.224452]},"properties":{"city":"Bellerose","lon":-74.842627,"zip":11426,"librarysystem":"Queens Library","phone":"(718) 831-8644","address":"250-06 Hillside Avenue","lat":40.224452,"libraryname":"Bellerose","state":"NY"}},{"type":"Feature","id":"a65vjt0nndk9","geometry":{"type":"Point","coordinates":[-73.887951,40.854463]},"properties":{"city":"New York","lon":-73.887951,"zip":10458,"librarysystem":"The New York Public Library","phone":"(718) 933-6410 ","address":"610 E. 186th Street","lat":40.854463,"libraryname":"Belmont Branch","state":"NY"}},{"type":"Feature","id":"a65vjt3oywae","geometry":{"type":"Point","coordinates":[-79.392625,42.159332]},"properties":{"city":"Bemus Point","lon":-79.392625,"zip":14712,"librarysystem":"Chautauqua - Cattaraugus Library System","phone":"(716) 386-2274","address":"13 Main Street","lat":42.159332,"libraryname":"Bemus Point Public Library ","state":"NY"}},{"type":"Feature","id":"a65vjsxbwyia","geometry":{"type":"Point","coordinates":[-76.185895,42.306586]},"properties":{"city":"Berkshire","lon":-76.185895,"zip":13736,"librarysystem":"Finger Lakes Library System","phone":"(607) 657-4418","address":"12519-1 State Route 38","lat":42.306586,"libraryname":"Berkshire Free Library","state":"NY"}},{"type":"Feature","id":"a65vjt7afm64","geometry":{"type":"Point","coordinates":[-73.366556,42.68104]},"properties":{"city":"Berlin","lon":-73.366556,"zip":12022,"librarysystem":"Upper Hudson Library System","phone":"(518) 658-2231","address":"Box 466","lat":42.68104,"libraryname":"Berlin Free Town Library ","state":"NY"}},{"type":"Feature","id":"a65vjsxc9mr4","geometry":{"type":"Point","coordinates":[-74.150647,42.60485]},"properties":{"city":"Berne","lon":-74.150647,"zip":12023,"librarysystem":"Upper Hudson Library System","phone":"(518) 872-1246","address":"PO Box 209","lat":42.60485,"libraryname":"Berne Public Library ","state":"NY"}},{"type":"Feature","id":"a65vjt6apko2","geometry":{"type":"Point","coordinates":[-73.840521,42.619713]},"properties":{"city":"Delmar","lon":-73.840521,"zip":12054,"librarysystem":"Upper Hudson Library System","phone":"(518) 439-9314","address":"451 Delaware Avenue","lat":42.619713,"libraryname":"Bethlehem Public Library ","state":"NY"}},{"type":"Feature","id":"a65vjswl8h4p","geometry":{"type":"Point","coordinates":[-75.711097,41.384894]},"properties":{"city":"Syracuse","lon":-75.711097,"zip":13205,"librarysystem":"Onondaga County Public Libraries","phone":"(315) 435-1940","address":"4862 S. Salina St.","lat":41.384894,"libraryname":"Betts Branch Library ","state":"NY"}},{"type":"Feature","id":"a65vjt8gwop3","geometry":{"type":"Point","coordinates":[-76.93663,42.13982]},"properties":{"city":"Big Flats","lon":-76.93663,"zip":14814,"librarysystem":"Chemung County Library District ","phone":"607-562-3300","address":"78 Canal Street","lat":42.13982,"libraryname":"Big Flats Library","state":"NY"}},{"type":"Feature","id":"a65vjt1mysbl","geometry":{"type":"Point","coordinates":[-73.425048,43.848987]},"properties":{"city":"Ticonderoga","lon":-73.425048,"zip":12883,"librarysystem":"Clinton-Essex-Franklin Library System","phone":"(518) 585-7380  ","address":"99 Montcalm Street","lat":43.848987,"libraryname":"Black Watch Memorial Library","state":"NY"}},{"type":"Feature","id":"a65vjsxohmcf","geometry":{"type":"Point","coordinates":[-73.957295,41.059761]},"properties":{"city":"Blauvelt","lon":-73.957295,"zip":10913,"librarysystem":"Ramapo Catskill Library System","phone":"Phone: (845)359-2811 ","address":"541 Western Highway","lat":41.059761,"libraryname":"Blauvelt Free Library","state":"NY"}},{"type":"Feature","id":"a65vjt4vddk8","geometry":{"type":"Point","coordinates":[-73.902023,41.53388]},"properties":{"city":"Fishkill","lon":-73.902023,"zip":12524,"librarysystem":"Mid-Hudson Library System","phone":"845.896.9215","address":"37 Broad Street","lat":41.53388,"libraryname":"Blodgett Memorial  Library","state":"NY"}},{"type":"Feature","id":"a65vjszf92vr","geometry":{"type":"Point","coordinates":[-79.766881,40.21175]},"properties":{"city":"East Bloomfield","lon":-79.766881,"zip":14443,"librarysystem":"Pioneer Library System  ","phone":"Phone: 585-657-6264","address":"9 Church Street","lat":40.21175,"libraryname":"Bloomfield Public Library  ","state":"NY"}},{"type":"Feature","id":"a65vjsw5xvzw","geometry":{"type":"Point","coordinates":[-73.967141,40.79597]},"properties":{"city":"New York","lon":-73.967141,"zip":10025,"librarysystem":"The New York Public Library","phone":"(212) 222-8030 ","address":"150 West 100th Street ","lat":40.79597,"libraryname":"Bloomingdale Branch","state":"NY"}},{"type":"Feature","id":"a65vjsxqi2q5","geometry":{"type":"Point","coordinates":[-78.457385,42.338011]},"properties":{"city":"Franklinville","lon":-78.457385,"zip":14737,"librarysystem":"Chautauqua - Cattaraugus Library System","phone":"(716) 676-5715","address":"5 N Main Street","lat":42.338011,"libraryname":"Blount Library Inc.","state":"NY"}},{"type":"Feature","id":"a65vjsyxl1mf","geometry":{"type":"Point","coordinates":[-73.655424,43.555357]},"properties":{"city":"Bolton Landing","lon":-73.655424,"zip":12814,"librarysystem":"Southern Adirondack Library System","phone":"(518) 644-2233","address":"4922 Lakeshore Drive","lat":43.555357,"libraryname":"Bolton Free Library","state":"NY"}},{"type":"Feature","id":"a65vjt6od1j7","geometry":{"type":"Point","coordinates":[-73.98934,40.639]},"properties":{"city":"Brooklyn","lon":-73.98934,"zip":11219,"librarysystem":"Brooklyn Public Library ","phone":"t. 718-437-4085","address":"1265 43rd St. at 13th Ave.","lat":40.639,"libraryname":"Borough Park","state":"NY"}},{"type":"Feature","id":"a65vjt44ngau","geometry":{"type":"Point","coordinates":[-78.733092,42.626075]},"properties":{"city":"Boston","lon":-78.733092,"zip":14025,"librarysystem":"BUFFALO AND ERIE COUNTY PUBLIC LIBRARY","phone":"716-941-3516","address":"9475 Boston State Rd.","lat":42.626075,"libraryname":"Boston Free Library","state":"NY"}},{"type":"Feature","id":"a65vjsvinxbd","geometry":{"type":"Point","coordinates":[-74.781247,42.262556]},"properties":{"city":"Bovina Center","lon":-74.781247,"zip":13740,"librarysystem":"Four County Library System","phone":"607-832-4884","address":"33 Maple Avenue","lat":42.262556,"libraryname":"Bovina Public Library","state":"NY"}},{"type":"Feature","id":"a65vjt6lz885","geometry":{"type":"Point","coordinates":[-73.750477,43.675903]},"properties":{"city":"Brant Lake","lon":-73.750477,"zip":12815,"librarysystem":"Southern Adirondack Library System","phone":"(518) 494-4189","address":"6604 State Route 8","lat":43.675903,"libraryname":"Brant Lake - Horicon Free Public Library","state":"NY"}},{"type":"Feature","id":"a65vjtasssqc","geometry":{"type":"Point","coordinates":[-73.247759,40.77828]},"properties":{"city":"Brentwood","lon":-73.247759,"zip":11717,"librarysystem":"Suffolk County Public Libraries","phone":"(631) 273-7883","address":"Second Avenue & Fourth Street","lat":40.77828,"libraryname":"Brentwood Public Library","state":"NY"}},{"type":"Feature","id":"a65vjt6thra4","geometry":{"type":"Point","coordinates":[-73.616658,41.394347]},"properties":{"city":"Brewster","lon":-73.616658,"zip":10509,"librarysystem":"Mid-Hudson Library System","phone":"845-279-6421","address":"79 Main Street","lat":41.394347,"libraryname":"Brewster Public Library","state":"NY"}},{"type":"Feature","id":"a65vjt27xnv9","geometry":{"type":"Point","coordinates":[-73.824326,41.145933]},"properties":{"city":"Briarcliff Manor","lon":-73.824326,"zip":10510,"librarysystem":"Westchester Library System","phone":"Telephone: (914) 941-7072","address":"Library Road","lat":41.145933,"libraryname":"Briarcliff Manor Public Library","state":"NY"}},{"type":"Feature","id":"a65vjt2f7mkh","geometry":{"type":"Point","coordinates":[-75.250629,39.93604]},"properties":{"city":"Briarwood","lon":-75.250629,"zip":11435,"librarysystem":"Queens Library","phone":"(718) 658-1680","address":"85-12 Main Street","lat":39.93604,"libraryname":"Briarwood","state":"NY"}},{"type":"Feature","id":"a65vjt9l63ce","geometry":{"type":"Point","coordinates":[-75.25104,42.87964]},"properties":{"city":"Bridgewater","lon":-75.25104,"zip":13313,"librarysystem":"Mid-York Library System","phone":"(315) 822-6475","address":"Route 8","lat":42.87964,"libraryname":"Bridgewater Free Library  ","state":"NY"}},{"type":"Feature","id":"a65vjt45l92g","geometry":{"type":"Point","coordinates":[-73.965669,40.58747]},"properties":{"city":"Brooklyn","lon":-73.965669,"zip":11235,"librarysystem":"Brooklyn Public Library ","phone":"t. 718-946-2917","address":"16 Brighton First Rd.","lat":40.58747,"libraryname":"Brighton Beach","state":"NY"}},{"type":"Feature","id":"a65vjt82l4bf","geometry":{"type":"Point","coordinates":[-77.575598,43.126232]},"properties":{"city":"Rochester","lon":-77.575598,"zip":14618,"librarysystem":"Monroe County Library System","phone":"(585) 784-5300","address":"2300 Elmwood Avenue","lat":43.126232,"libraryname":"Brighton Memorial Library","state":"NY"}},{"type":"Feature","id":"a65vjt3fgz7k","geometry":{"type":"Point","coordinates":[-75.158087,40.067018]},"properties":{"city":"Canandaigua","lon":-75.158087,"zip":14424,"librarysystem":"Pioneer Library System  ","phone":"Phone: 585-229-5862","address":"6750 County Rd 32","lat":40.067018,"libraryname":"Bristol Library  ","state":"NY"}},{"type":"Feature","id":"a65vjt8r8dny","geometry":{"type":"Point","coordinates":[-76.724726,39.963526]},"properties":{"city":"Broad Channel","lon":-76.724726,"zip":11693,"librarysystem":"Queens Library","phone":"(718) 318-4943","address":"16-26 Cross Bay Boulevard","lat":39.963526,"libraryname":"Broad Channel","state":"NY"}},{"type":"Feature","id":"a65vjt785m0l","geometry":{"type":"Point","coordinates":[-79.320896,41.851448]},"properties":{"city":"Long Island City","lon":-79.320896,"zip":11103,"librarysystem":"Queens Library","phone":"(718) 721-2462","address":"40-20 Broadway","lat":41.851448,"libraryname":"Broadway","state":"NY"}},{"type":"Feature","id":"a65vjt673hfd","geometry":{"type":"Point","coordinates":[-77.929703,43.220235]},"properties":{"city":"Brockport","lon":-77.929703,"zip":14420,"librarysystem":"Monroe County Library System","phone":"(585) 637-1050","address":"161 East Avenue","lat":43.220235,"libraryname":"Brockport-Seymour Library","state":"NY"}},{"type":"Feature","id":"a65vjt6ac3wr","geometry":{"type":"Point","coordinates":[-73.894337,40.863137]},"properties":{"city":"Bronx","lon":-73.894337,"zip":10458,"librarysystem":"The New York Public Library","phone":"(718) 579-4244","address":"310 East Kingsbridge Road","lat":40.863137,"libraryname":"Bronx Library Center","state":"NY"}},{"type":"Feature","id":"a65vjt929u1k","geometry":{"type":"Point","coordinates":[-73.831105,40.936219]},"properties":{"city":"Bronxville","lon":-73.831105,"zip":10708,"librarysystem":"Westchester Library System","phone":"Telephone: (914) 337-7680","address":"201 Pondfield Road","lat":40.936219,"libraryname":"Bronxville Public Library","state":"NY"}},{"type":"Feature","id":"a65vjt8pv7wu","geometry":{"type":"Point","coordinates":[-72.911861,40.7738]},"properties":{"city":"Brookhaven","lon":-72.911861,"zip":11719,"librarysystem":"Suffolk County Public Libraries","phone":"(631) 286-1923","address":"273 Beaver Dam Road","lat":40.7738,"libraryname":"Brookhaven Free Library","state":"NY"}},{"type":"Feature","id":"a65vjt9bulyb","geometry":{"type":"Point","coordinates":[-73.991167,40.695631]},"properties":{"city":"Brooklyn","lon":-73.991167,"zip":11201,"librarysystem":"Brooklyn Public Library ","phone":"t. 718-623-7100","address":"280 Cadman Plaza West at Tillary St.","lat":40.695631,"libraryname":"Brooklyn Heights","state":"NY"}},{"type":"Feature","id":"a65vjswsweqk","geometry":{"type":"Point","coordinates":[-75.906335,42.100207]},"properties":{"city":"Binghamton","lon":-75.906335,"zip":13901,"librarysystem":"Four County Library System","phone":"607-778-6400","address":"185 Court Street","lat":42.100207,"libraryname":"Broome County Public Library","state":"NY"}},{"type":"Feature","id":"a65vjsvj0ui2","geometry":{"type":"Point","coordinates":[-73.948606,40.675259]},"properties":{"city":"Brooklyn","lon":-73.948606,"zip":11216,"librarysystem":"Brooklyn Public Library ","phone":"t. 718-773-7208","address":"725 St. Marks Ave. at Nostrand Ave.","lat":40.675259,"libraryname":"Brower Park","state":"NY"}},{"type":"Feature","id":"a65vjt4koe0m","geometry":{"type":"Point","coordinates":[-73.908733,40.671431]},"properties":{"city":"Brooklyn","lon":-73.908733,"zip":11212,"librarysystem":"Brooklyn Public Library ","phone":"t. 718-498-9721","address":"61 Glenmore Ave. at Watkins St.","lat":40.671431,"libraryname":"Brownsville","state":"NY"}},{"type":"Feature","id":"a65vjt48ca4f","geometry":{"type":"Point","coordinates":[-73.598015,42.730057]},"properties":{"city":"Troy","lon":-73.598015,"zip":12180,"librarysystem":"Upper Hudson Library System","phone":"(518) 279-4023","address":"605 Brunswick Road","lat":42.730057,"libraryname":"Brunswick Community Library ","state":"NY"}},{"type":"Feature","id":"a65vjt90pn01","geometry":{"type":"Point","coordinates":[-73.939317,40.704722]},"properties":{"city":"Brooklyn","lon":-73.939317,"zip":11206,"librarysystem":"Brooklyn Public Library ","phone":"t. 718-602-1348","address":"340 Bushwick Ave. at Seigel St.","lat":40.704722,"libraryname":"Bushwick","state":"NY"}},{"type":"Feature","id":"a65vjsy2hbhm","geometry":{"type":"Point","coordinates":[-73.991167,40.695631]},"properties":{"city":"Brooklyn","lon":-73.991167,"zip":11201,"librarysystem":"Brooklyn Public Library ","phone":"t. 718-623-7000","address":"280 Cadman Plaza W. at Tillary St.","lat":40.695631,"libraryname":"Business Library","state":"NY"}},{"type":"Feature","id":"a65vjt1omjll","geometry":{"type":"Point","coordinates":[-73.955686,41.420835]},"properties":{"city":"Cold Spring","lon":-73.955686,"zip":10516,"librarysystem":"Mid-Hudson Library System","phone":"845.265.3040","address":"10 Morris Avenue","lat":41.420835,"libraryname":"Butterfield Library","state":"NY"}},{"type":"Feature","id":"a65vjt36jxls","geometry":{"type":"Point","coordinates":[-75.459315,42.940135]},"properties":{"city":"Oriskany Falls","lon":-75.459315,"zip":13425,"librarysystem":"Mid-York Library System","phone":"(315) 821-7850","address":"160 N. Main St.","lat":42.940135,"libraryname":"C.W. Clark Memorial Library  ","state":"NY"}},{"type":"Feature","id":"a65vjt8rjnqr","geometry":{"type":"Point","coordinates":[-76.360459,42.021745]},"properties":{"city":"Nichols","lon":-76.360459,"zip":13812,"librarysystem":"Finger Lakes Library System","phone":"(607) 699-3835","address":"E. River Rd.","lat":42.021745,"libraryname":"Cady Library","state":"NY"}},{"type":"Feature","id":"a65vjsxbh5v5","geometry":{"type":"Point","coordinates":[-74.000182,42.300417]},"properties":{"city":"Cairo","lon":-74.000182,"zip":12413,"librarysystem":"Mid-Hudson Library System","phone":"518.622.9864 ","address":"512 Main Street","lat":42.300417,"libraryname":"Cairo Public Library","state":"NY"}},{"type":"Feature","id":"a65vjswsawim","geometry":{"type":"Point","coordinates":[-73.711714,43.427425]},"properties":{"city":"Lake George","lon":-73.711714,"zip":12845,"librarysystem":"Southern Adirondack Library System","phone":"(518) 668-2528","address":"336 Canada Street","lat":43.427425,"libraryname":"Caldwell-Lake George Library","state":"NY"}},{"type":"Feature","id":"a65vjsyk0oli","geometry":{"type":"Point","coordinates":[-76.71001,39.882493]},"properties":{"city":"Caledonia","lon":-76.71001,"zip":14423,"librarysystem":"Pioneer Library System  ","phone":"Phone: 585-538-4512","address":"3108 Main Street","lat":39.882493,"libraryname":"Caledonia Library Association  ","state":"NY"}},{"type":"Feature","id":"a65vjsynx79i","geometry":{"type":"Point","coordinates":[-79.580804,40.240579]},"properties":{"city":"Cambria Heights","lon":-79.580804,"zip":11411,"librarysystem":"Queens Library","phone":"(718) 528-3535","address":"218-13 Linden Boulevard","lat":40.240579,"libraryname":"Cambria Heights","state":"NY"}},{"type":"Feature","id":"a65vjswzoiho","geometry":{"type":"Point","coordinates":[-73.383388,43.027966]},"properties":{"city":"Cambridge","lon":-73.383388,"zip":12816,"librarysystem":"Southern Adirondack Library System","phone":"(518) 677-2443","address":"21 West Main St.","lat":43.027966,"libraryname":"Cambridge Public Library","state":"NY"}},{"type":"Feature","id":"a65vjt8rkclr","geometry":{"type":"Point","coordinates":[-75.746668,43.337005]},"properties":{"city":"Camden","lon":-75.746668,"zip":13316,"librarysystem":"Mid-York Library System","phone":"(315) 245-1980","address":"57 Second Street","lat":43.337005,"libraryname":"Camden Library  ","state":"NY"}},{"type":"Feature","id":"a65vjsvw83d1","geometry":{"type":"Point","coordinates":[-74.571756,42.907019]},"properties":{"city":"Canajoharie","lon":-74.571756,"zip":13317,"librarysystem":"Mohawk Valley Library System","phone":"673-2314 ","address":"2 Erie Boulevard","lat":42.907019,"libraryname":"Canajoharie Library & Art Gallery","state":"NY"}},{"type":"Feature","id":"a65vjtbk3eqq","geometry":{"type":"Point","coordinates":[-73.899306,40.642233]},"properties":{"city":"Brooklyn","lon":-73.899306,"zip":11236,"librarysystem":"Brooklyn Public Library ","phone":"t. 718-257-6547","address":"1580 Rockaway Pkwy. at Ave. J","lat":40.642233,"libraryname":"Canarsie","state":"NY"}},{"type":"Feature","id":"a65vjt0uad5i","geometry":{"type":"Point","coordinates":[-75.755172,43.078363]},"properties":{"city":"Canastota","lon":-75.755172,"zip":13032,"librarysystem":"Mid-York Library System","phone":"(315) 697-7030","address":"102 W. Center St.","lat":43.078363,"libraryname":"Canastota Public Library  ","state":"NY"}},{"type":"Feature","id":"a65vjt1pzz57","geometry":{"type":"Point","coordinates":[-76.341319,42.232297]},"properties":{"city":"Candor","lon":-76.341319,"zip":13743,"librarysystem":"Finger Lakes Library System","phone":"(607) 659-7258","address":"2 Bank St","lat":42.232297,"libraryname":"Candor Free Library","state":"NY"}},{"type":"Feature","id":"a65vjt7dbucl","geometry":{"type":"Point","coordinates":[-74.919423,42.273715]},"properties":{"city":"Delhi","lon":-74.919423,"zip":13753,"librarysystem":"Four County Library System","phone":"607-746-2662","address":"40 Elm Street","lat":42.273715,"libraryname":"Cannon Free Library","state":"NY"}},{"type":"Feature","id":"a65vjsx8fd9b","geometry":{"type":"Point","coordinates":[-73.997897,40.683292]},"properties":{"city":"Brooklyn","lon":-73.997897,"zip":11231,"librarysystem":"Brooklyn Public Library ","phone":"t. 718-596-6972","address":"396 Clinton St. @ Union St.","lat":40.683292,"libraryname":"Carroll Gardens","state":"NY"}},{"type":"Feature","id":"a65vjsvnog4s","geometry":{"type":"Point","coordinates":[-79.31057,42.344204]},"properties":{"city":"Cassadaga","lon":-79.31057,"zip":14718,"librarysystem":"Chautauqua - Cattaraugus Library System","phone":"","address":"18 Maple Avenue","lat":42.344204,"libraryname":"Cassadaga Branch Library ","state":"NY"}},{"type":"Feature","id":"a65vjt70qghi","geometry":{"type":"Point","coordinates":[-73.849924,40.826375]},"properties":{"city":"New York","lon":-73.849924,"zip":10473,"librarysystem":"The New York Public Library","phone":"(718) 824-3838 ","address":"947 Castle Hill Avenue ","lat":40.826375,"libraryname":"Castle Hill Branch","state":"NY"}},{"type":"Feature","id":"a65vjtabqc2t","geometry":{"type":"Point","coordinates":[-73.757496,42.528319]},"properties":{"city":"Castleton-on-Hudson","lon":-73.757496,"zip":12033,"librarysystem":"Upper Hudson Library System","phone":"(518) 732-0879","address":"85 South Main Street","lat":42.528319,"libraryname":"Castleton Public Library ","state":"NY"}},{"type":"Feature","id":"a65vjt83ag1w","geometry":{"type":"Point","coordinates":[-73.864323,42.217841]},"properties":{"city":"Catskill","lon":-73.864323,"zip":12414,"librarysystem":"Mid-Hudson Library System","phone":"518.943.4230","address":"1 Franklin Street","lat":42.217841,"libraryname":"Catskill Public Library","state":"NY"}},{"type":"Feature","id":"a65vjt4wd5zx","geometry":{"type":"Point","coordinates":[-78.868834,42.32975]},"properties":{"city":"Cattaraugus","lon":-78.868834,"zip":14719,"librarysystem":"Chautauqua - Cattaraugus Library System","phone":"Phone Number: (716) 257-9500","address":"21 Main Street","lat":42.32975,"libraryname":"Cattaraugus Free Library","state":"NY"}},{"type":"Feature","id":"a65vjt8yj1h1","geometry":{"type":"Point","coordinates":[-75.852391,42.929686]},"properties":{"city":"Cazenovia","lon":-75.852391,"zip":13035,"librarysystem":"Mid-York Library System","phone":"(315) 655-9322","address":"100 Albany St.","lat":42.929686,"libraryname":"Cazenovia Public Library  ","state":"NY"}},{"type":"Feature","id":"a65vjt6zl1lw","geometry":{"type":"Point","coordinates":[-72.788403,40.800102]},"properties":{"city":"Center Moriches","lon":-72.788403,"zip":11934,"librarysystem":"Suffolk County Public Libraries","phone":"(631) 878-0940","address":"235 Main Street","lat":40.800102,"libraryname":"Center Moriches Free Public Library","state":"NY"}},{"type":"Feature","id":"a65vjswqy0eb","geometry":{"type":"Point","coordinates":[-73.195876,40.795568]},"properties":{"city":"Central Islip","lon":-73.195876,"zip":11722,"librarysystem":"Suffolk County Public Libraries","phone":"(631) 234-9333","address":"33 Hawthorne Avenue","lat":40.795568,"libraryname":"Central Islip Public Library","state":"NY"}},{"type":"Feature","id":"a65vjta15xqt","geometry":{"type":"Point","coordinates":[-73.970284,40.673889]},"properties":{"city":"Brooklyn","lon":-73.970284,"zip":11238,"librarysystem":"Brooklyn Public Library ","phone":"t. 718-230-2100","address":"Grand Army Plaza","lat":40.673889,"libraryname":"Central Library","state":"NY"}},{"type":"Feature","id":"a65vjsvrw7nr","geometry":{"type":"Point","coordinates":[-78.874226,42.885629]},"properties":{"city":"Buffalo","lon":-78.874226,"zip":14203,"librarysystem":"BUFFALO AND ERIE COUNTY PUBLIC LIBRARY","phone":"716-858-8900 ","address":"1 Lafayette Square","lat":42.885629,"libraryname":"Central Library","state":"NY"}},{"type":"Feature","id":"a65vjsws13d4","geometry":{"type":"Point","coordinates":[-79.383004,40.315305]},"properties":{"city":"Jamaica","lon":-79.383004,"zip":11432,"librarysystem":"Queens Library","phone":"(718) 990-0700","address":"89-11 Merrick Boulevard","lat":40.315305,"libraryname":"Central Library  (ALC)","state":"NY"}},{"type":"Feature","id":"a65vjszoyig8","geometry":{"type":"Point","coordinates":[-73.970284,40.673889]},"properties":{"city":"Brooklyn","lon":-73.970284,"zip":11238,"librarysystem":"Brooklyn Public Library ","phone":"t. 718-230-2191","address":"Grand Army Plaza","lat":40.673889,"libraryname":"Central Library Learning Center","state":"NY"}},{"type":"Feature","id":"a65vjt48j62n","geometry":{"type":"Point","coordinates":[-77.607803,43.153809]},"properties":{"city":"Rochester","lon":-77.607803,"zip":14604,"librarysystem":"Monroe County Library System","phone":"(585) 428-7300","address":"115 South Avenue","lat":43.153809,"libraryname":"Central Library of Rochester and Monroe County","state":"NY"}},{"type":"Feature","id":"a65vjsvsxhu6","geometry":{"type":"Point","coordinates":[-73.439793,44.985765]},"properties":{"city":"Champlain","lon":-73.439793,"zip":12919,"librarysystem":"Clinton-Essex-Franklin Library System","phone":"(518) 298-8620","address":"148 Elm Street","lat":44.985765,"libraryname":"Champlain Memorial Library","state":"NY"}},{"type":"Feature","id":"a65vjt0mcyxf","geometry":{"type":"Point","coordinates":[-73.773852,41.154538]},"properties":{"city":"Chappaqua","lon":-73.773852,"zip":10514,"librarysystem":"Westchester Library System","phone":"Telephone: (914) 238-4779","address":"195 South Greeley Avenue","lat":41.154538,"libraryname":"Chappaqua Library","state":"NY"}},{"type":"Feature","id":"a65vjt8dnhyg","geometry":{"type":"Point","coordinates":[-77.62376,43.236433]},"properties":{"city":"Rochester","lon":-77.62376,"zip":14612,"librarysystem":"Monroe County Library System","phone":"(585) 428-8216","address":"3615 Lake Avenue","lat":43.236433,"libraryname":"Charlotte Branch Library","state":"NY"}},{"type":"Feature","id":"a65vjszqx093","geometry":{"type":"Point","coordinates":[-74.077553,44.926757]},"properties":{"city":"Chateaugay","lon":-74.077553,"zip":12920,"librarysystem":"Clinton-Essex-Franklin Library System","phone":"(518) 497-0400","address":"191 East Main St.","lat":44.926757,"libraryname":"Chateaugay Memorial Library","state":"NY"}},{"type":"Feature","id":"a65vjt41c6m8","geometry":{"type":"Point","coordinates":[-73.602406,42.361767]},"properties":{"city":"Chatham","lon":-73.602406,"zip":12037,"librarysystem":"Mid-Hudson Library System","phone":"518.392.3666","address":"11 Woodbridge Avenue","lat":42.361767,"libraryname":"Chatham Public Library","state":"NY"}},{"type":"Feature","id":"a65vjsykqxtf","geometry":{"type":"Point","coordinates":[-73.996366,40.713403]},"properties":{"city":"New York","lon":-73.996366,"zip":10002,"librarysystem":"The New York Public Library","phone":"(212) 964-6598 ","address":"33 East Broadway ","lat":40.713403,"libraryname":"Chatham Square Branch","state":"NY"}},{"type":"Feature","id":"a65vjt7swr09","geometry":{"type":"Point","coordinates":[-73.436702,44.887362]},"properties":{"city":"Chazy","lon":-73.436702,"zip":12921,"librarysystem":"Clinton-Essex-Franklin Library System","phone":"(518) 846-7676","address":"9633 Rt. 9","lat":44.887362,"libraryname":"Chazy Public Library","state":"NY"}},{"type":"Feature","id":"a65vjsxdcyho","geometry":{"type":"Point","coordinates":[-78.784567,42.913064]},"properties":{"city":"Cheektowaga","lon":-78.784567,"zip":14225,"librarysystem":"BUFFALO AND ERIE COUNTY PUBLIC LIBRARY","phone":"716-892-8089","address":"2580 Harlem Road","lat":42.913064,"libraryname":"Cheektowaga Public Library Anna M. Reinstein Memorial Branch","state":"NY"}},{"type":"Feature","id":"a65vjswy0tzn","geometry":{"type":"Point","coordinates":[-78.719031,42.880271]},"properties":{"city":"Cheektowaga","lon":-78.719031,"zip":14227,"librarysystem":"BUFFALO AND ERIE COUNTY PUBLIC LIBRARY","phone":"716-668-4991","address":"1030 Losson Road","lat":42.880271,"libraryname":"Cheektowaga Public Library Julia Boyer Reinstein Branch","state":"NY"}},{"type":"Feature","id":"a65vjt4ltcr0","geometry":{"type":"Point","coordinates":[-73.34998,42.90188]},"properties":{"city":"Hoosick Falls","lon":-73.34998,"zip":12090,"librarysystem":"Upper Hudson Library System","phone":"(518) 686-9401","address":"Classic Street","lat":42.90188,"libraryname":"Cheney Library (Hoosick Falls) ","state":"NY"}},{"type":"Feature","id":"a65vjszl6s45","geometry":{"type":"Point","coordinates":[-74.750711,42.797668]},"properties":{"city":"Cherry Valley","lon":-74.750711,"zip":13320,"librarysystem":"Four County Library System","phone":"607-264-8214","address":"61 Main Street","lat":42.797668,"libraryname":"Cherry Valley Memorial Library","state":"NY"}},{"type":"Feature","id":"a65vjswlf1q3","geometry":{"type":"Point","coordinates":[-74.275627,41.340642]},"properties":{"city":"Chester","lon":-74.275627,"zip":10918,"librarysystem":"Ramapo Catskill Library System","phone":"(845) 469-4252 ","address":"1784 Kings Highway","lat":41.340642,"libraryname":"Chester Public Library ","state":"NY"}},{"type":"Feature","id":"a65vjt4w1rp9","geometry":{"type":"Point","coordinates":[-77.756564,43.101838]},"properties":{"city":"Rochester","lon":-77.756564,"zip":14624,"librarysystem":"Monroe County Library System","phone":"(585) 889-2200","address":"3333 Chili Avenue","lat":43.101838,"libraryname":"Chili Public Library","state":"NY"}},{"type":"Feature","id":"a65vjtba24m1","geometry":{"type":"Point","coordinates":[-73.786442,40.847611]},"properties":{"city":"New York","lon":-73.786442,"zip":10464,"librarysystem":"The New York Public Library","phone":"(718) 885-1703 ","address":"320 City Island Avenue","lat":40.847611,"libraryname":"City Island Branch","state":"NY"}},{"type":"Feature","id":"a65vjszfc88o","geometry":{"type":"Point","coordinates":[-78.879808,43.010683]},"properties":{"city":"Tonawanda","lon":-78.879808,"zip":14150,"librarysystem":"BUFFALO AND ERIE COUNTY PUBLIC LIBRARY","phone":"716-693-5043","address":"333 Main Street","lat":43.010683,"libraryname":"City of Tonawanda Public Library","state":"NY"}},{"type":"Feature","id":"a65vjt0qkofw","geometry":{"type":"Point","coordinates":[-78.638584,42.996944]},"properties":{"city":"Clarence","lon":-78.638584,"zip":14031,"librarysystem":"BUFFALO AND ERIE COUNTY PUBLIC LIBRARY","phone":"716-741-2650","address":"3 Town Place","lat":42.996944,"libraryname":"Clarence Public Library","state":"NY"}},{"type":"Feature","id":"a65vjsx3wt8q","geometry":{"type":"Point","coordinates":[-73.947769,40.635735]},"properties":{"city":"Brooklyn","lon":-73.947769,"zip":11210,"librarysystem":"Brooklyn Public Library ","phone":"t. 718-421-1159","address":"2035 Nostrand Ave.","lat":40.635735,"libraryname":"Clarendon","state":"NY"}},{"type":"Feature","id":"a65vjt6fawyg","geometry":{"type":"Point","coordinates":[-73.874885,40.829981]},"properties":{"city":"New York","lon":-73.874885,"zip":10472,"librarysystem":"The New York Public Library","phone":"(718) 842-1235 ","address":"1215 Morrison Avenue ","lat":40.829981,"libraryname":"Clason's Point Branch","state":"NY"}},{"type":"Feature","id":"a65vjt4kubam","geometry":{"type":"Point","coordinates":[-73.680499,42.20982]},"properties":{"city":"Claverack","lon":-73.680499,"zip":12513,"librarysystem":"Mid-Hudson Library System","phone":"518.851.7120 ","address":"629 Route 23B","lat":42.20982,"libraryname":"Claverack Library","state":"NY"}},{"type":"Feature","id":"a65vjswosp4o","geometry":{"type":"Point","coordinates":[-75.248908,42.97238]},"properties":{"city":"Clayville","lon":-75.248908,"zip":13322,"librarysystem":"Mid-York Library System","phone":"(315) 839-5893","address":"2265 Oneida St. ","lat":42.97238,"libraryname":"Clayville Library Association  ","state":"NY"}},{"type":"Feature","id":"a65vjswzjqal","geometry":{"type":"Point","coordinates":[-73.794167,42.857159]},"properties":{"city":"Clifton Park","lon":-73.794167,"zip":12065,"librarysystem":"Southern Adirondack Library System","phone":"(518) 371-8622","address":"475 Moe Road","lat":42.857159,"libraryname":"Clifton Park-Halfmoon Public Library","state":"NY"}},{"type":"Feature","id":"a65vjsv2mpok","geometry":{"type":"Point","coordinates":[-75.795529,41.330204]},"properties":{"city":"Clifton Springs","lon":-75.795529,"zip":14432,"librarysystem":"Pioneer Library System  ","phone":"Phone: 315-462-7371","address":"4 Railroad Avenue","lat":41.330204,"libraryname":"Clifton Springs Library  ","state":"NY"}},{"type":"Feature","id":"a65vjt8yvkm0","geometry":{"type":"Point","coordinates":[-73.804089,41.883604]},"properties":{"city":"Rhinebeck","lon":-73.804089,"zip":12572,"librarysystem":"Mid-Hudson Library System","phone":"845.266.5530","address":"1215 Centre Road","lat":41.883604,"libraryname":"Clinton Community Library","state":"NY"}},{"type":"Feature","id":"a65vjtbj1132","geometry":{"type":"Point","coordinates":[-73.965836,40.687396]},"properties":{"city":"Brooklyn","lon":-73.965836,"zip":11238,"librarysystem":"Brooklyn Public Library ","phone":"t. 718-398-8713","address":"380 Washington Ave. at Lafayette Ave.","lat":40.687396,"libraryname":"Clinton Hill","state":"NY"}},{"type":"Feature","id":"a65vjtauto01","geometry":{"type":"Point","coordinates":[-75.103518,40.218855]},"properties":{"city":"Clyde","lon":-75.103518,"zip":14433,"librarysystem":"Pioneer Library System  ","phone":"Phone: 315-923-7767","address":"204 Glasgow Street","lat":40.218855,"libraryname":"Clyde-Savannah Public Library ","state":"NY"}},{"type":"Feature","id":"a65vjtb8fea0","geometry":{"type":"Point","coordinates":[-79.629776,42.022227]},"properties":{"city":"Clymer","lon":-79.629776,"zip":14724,"librarysystem":"Chautauqua - Cattaraugus Library System","phone":"(716) 355-8823","address":"564 Clymer-Sherman Road","lat":42.022227,"libraryname":"Clymer-French Creek Library","state":"NY"}},{"type":"Feature","id":"a65vjtabqqq3","geometry":{"type":"Point","coordinates":[-76.258859,42.105528]},"properties":{"city":"Owego","lon":-76.258859,"zip":13827,"librarysystem":"Finger Lakes Library System","phone":"(607) 687-3520","address":"275 Main Street","lat":42.105528,"libraryname":"Coburn Free Library","state":"NY"}},{"type":"Feature","id":"a65vjswu03za","geometry":{"type":"Point","coordinates":[-73.699465,42.771872]},"properties":{"city":"Cohoes","lon":-73.699465,"zip":12047,"librarysystem":"Upper Hudson Library System","phone":"(518) 235-2570","address":"169 Mohawk Street","lat":42.771872,"libraryname":"Cohoes Public Library ","state":"NY"}},{"type":"Feature","id":"a65vjsxt8z75","geometry":{"type":"Point","coordinates":[-73.461755,40.867214]},"properties":{"city":"Cold Spring Harbor","lon":-73.461755,"zip":11724,"librarysystem":"Suffolk County Public Libraries","phone":"(631) 692-6820","address":"95 Harbor Road","lat":40.867214,"libraryname":"Cold Spring Harbor Library","state":"NY"}},{"type":"Feature","id":"a65vjtbdlc4k","geometry":{"type":"Point","coordinates":[-78.919232,42.496422]},"properties":{"city":"Collins","lon":-78.919232,"zip":14034,"librarysystem":"BUFFALO AND ERIE COUNTY PUBLIC LIBRARY","phone":"716-532-5129","address":"2341 Main St.","lat":42.496422,"libraryname":"Collins Public Library","state":"NY"}},{"type":"Feature","id":"a65vjt51cr7o","geometry":{"type":"Point","coordinates":[-73.991381,40.764961]},"properties":{"city":"New York","lon":-73.991381,"zip":10019,"librarysystem":"The New York Public Library","phone":"(212) 586-5098 ","address":"742 10th Avenue ","lat":40.764961,"libraryname":"Columbus Branch","state":"NY"}},{"type":"Feature","id":"a65vjsyk1yrf","geometry":{"type":"Point","coordinates":[-73.294898,40.828727]},"properties":{"city":"Commack","lon":-73.294898,"zip":11725,"librarysystem":"Suffolk County Public Libraries","phone":"(631) 499-0888","address":"18 Hauppauge Road","lat":40.828727,"libraryname":"Commack Public Library","state":"NY"}},{"type":"Feature","id":"a65vjt36b4mb","geometry":{"type":"Point","coordinates":[-73.052803,40.923227]},"properties":{"city":"Port Jefferson Station","lon":-73.052803,"zip":11776,"librarysystem":"Suffolk County Public Libraries","phone":"(631) 928-1212","address":"170 Terryville Road","lat":40.923227,"libraryname":"Comsewogue Public Library","state":"NY"}},{"type":"Feature","id":"a65vjt2vz1u4","geometry":{"type":"Point","coordinates":[-78.666117,42.510046]},"properties":{"city":"Springville","lon":-78.666117,"zip":14141,"librarysystem":"BUFFALO AND ERIE COUNTY PUBLIC LIBRARY","phone":"716-592-7742","address":"18 Chapel Street","lat":42.510046,"libraryname":"Concord Public Library","state":"NY"}},{"type":"Feature","id":"a65vjt4y01bo","geometry":{"type":"Point","coordinates":[-73.985966,40.576556]},"properties":{"city":"Brooklyn","lon":-73.985966,"zip":11224,"librarysystem":"Brooklyn Public Library ","phone":"t. 718-265-3220","address":"1901 Mermaid Ave. (Near W. 19th St.)","lat":40.576556,"libraryname":"Coney Island","state":"NY"}},{"type":"Feature","id":"a65vjt7o1hys","geometry":{"type":"Point","coordinates":[-73.985966,40.576556]},"properties":{"city":"Brooklyn","lon":-73.985966,"zip":11224,"librarysystem":"Brooklyn Public Library ","phone":"t. 718-265-3880","address":"1901 Mermaid Avenue at 19th St.","lat":40.576556,"libraryname":"Coney Island Learning Center","state":"NY"}},{"type":"Feature","id":"a65vjt3303og","geometry":{"type":"Point","coordinates":[-73.11728,40.758577]},"properties":{"city":"Bohemia","lon":-73.11728,"zip":11716,"librarysystem":"Suffolk County Public Libraries","phone":"(631) 567-5079","address":"760 Ocean Avenue","lat":40.758577,"libraryname":"Connetquot Public Library","state":"NY"}},{"type":"Feature","id":"a65vjt8m0bvb","geometry":{"type":"Point","coordinates":[-73.402449,40.669712]},"properties":{"city":"Copiague","lon":-73.402449,"zip":11726,"librarysystem":"Suffolk County Public Libraries","phone":"(631) 691-1111","address":"50 Deauville Boulevard","lat":40.669712,"libraryname":"Copiague Memorial Public Library","state":"NY"}},{"type":"Feature","id":"a65vjsy8bdvh","geometry":{"type":"Point","coordinates":[-75.17728,39.996756]},"properties":{"city":"Castile","lon":-75.17728,"zip":14427,"librarysystem":"Pioneer Library System  ","phone":"Phone: 585-493-5466","address":"11 S Main Street","lat":39.996756,"libraryname":"Cordelia A. Greene Library  ","state":"NY"}},{"type":"Feature","id":"a65vjswfrwme","geometry":{"type":"Point","coordinates":[-73.833758,43.2478]},"properties":{"city":"Corinth","lon":-73.833758,"zip":12822,"librarysystem":"Southern Adirondack Library System","phone":"(518) 654-6913","address":"89 Main St.","lat":43.2478,"libraryname":"Corinth Free Library","state":"NY"}},{"type":"Feature","id":"a65vjt1ngjta","geometry":{"type":"Point","coordinates":[-74.026999,41.441446]},"properties":{"city":"Cornwall","lon":-74.026999,"zip":12518,"librarysystem":"Ramapo Catskill Library System","phone":"Phone: (845)534-8282 ","address":"395 Hudson St.","lat":41.441446,"libraryname":"Cornwall Public Library","state":"NY"}},{"type":"Feature","id":"a65vjt03ig1u","geometry":{"type":"Point","coordinates":[-80.135434,40.793939]},"properties":{"city":"Corona","lon":-80.135434,"zip":11368,"librarysystem":"Queens Library","phone":"(718) 426-2844","address":"38-23 104 Street","lat":40.793939,"libraryname":"Corona","state":"NY"}},{"type":"Feature","id":"a65vjsvuukd0","geometry":{"type":"Point","coordinates":[-73.966105,40.640556]},"properties":{"city":"Brooklyn","lon":-73.966105,"zip":11226,"librarysystem":"Brooklyn Public Library ","phone":"t. 718-693-7763","address":"1305 Cortelyou Rd. at Argyle Rd.","lat":40.640556,"libraryname":"Cortelyou","state":"NY"}},{"type":"Feature","id":"a65vjt412vnm","geometry":{"type":"Point","coordinates":[-76.213132,42.501739]},"properties":{"city":"Cortland","lon":-76.213132,"zip":13045,"librarysystem":"Finger Lakes Library System","phone":"(607) 753-1042","address":"32 Church Street","lat":42.501739,"libraryname":"Cortland Free Library","state":"NY"}},{"type":"Feature","id":"a65vjt040bjn","geometry":{"type":"Point","coordinates":[-73.940897,40.814844]},"properties":{"city":"New York","lon":-73.940897,"zip":10030,"librarysystem":"The New York Public Library","phone":"(212) 491-2070 ","address":"104 West 136th Street ","lat":40.814844,"libraryname":"Countee Cullen Branch","state":"NY"}},{"type":"Feature","id":"a65vjsykitop","geometry":{"type":"Point","coordinates":[-73.943158,40.746889]},"properties":{"city":"Long Island City","lon":-73.943158,"zip":11101,"librarysystem":"Queens Library","phone":"(718) 937-2790","address":"25-01 Jackson Avenue","lat":40.746889,"libraryname":"Court Square","state":"NY"}},{"type":"Feature","id":"a65vjt6t8xw8","geometry":{"type":"Point","coordinates":[-74.384607,41.670567]},"properties":{"city":"Cragsmoor","lon":-74.384607,"zip":12420,"librarysystem":"Mid-Hudson Library System","phone":"(845)647-4611 ","address":"Cragsmoor Road","lat":41.670567,"libraryname":"Cragsmoor Free Library","state":"NY"}},{"type":"Feature","id":"a65vjsxyxa48","geometry":{"type":"Point","coordinates":[-74.384756,41.670643]},"properties":{"city":"Cragsmoor","lon":-74.384756,"zip":12420,"librarysystem":"Ramapo Catskill Library System","phone":"Phone/FAX: (845)647-4611 ","address":"Cragsmoor Road","lat":41.670643,"libraryname":"Cragsmoor Free Library","state":"NY"}},{"type":"Feature","id":"a65vjtbk6ddh","geometry":{"type":"Point","coordinates":[-78.877024,42.914409]},"properties":{"city":"Buffalo","lon":-78.877024,"zip":14222,"librarysystem":"BUFFALO AND ERIE COUNTY PUBLIC LIBRARY","phone":"716-883-6651","address":"633 Elmwood Avenue","lat":42.914409,"libraryname":"Crane Branch Library","state":"NY"}},{"type":"Feature","id":"a65vjsyo5lic","geometry":{"type":"Point","coordinates":[-73.878961,41.207314]},"properties":{"city":"Croton-on-Hudson","lon":-73.878961,"zip":10520,"librarysystem":"Westchester Library System","phone":"Telephone: (914) 271-6612","address":"171 Cleveland Drive","lat":41.207314,"libraryname":"Croton Free Library","state":"NY"}},{"type":"Feature","id":"a65vjsyefdf0","geometry":{"type":"Point","coordinates":[-73.947865,40.661074]},"properties":{"city":"Brooklyn","lon":-73.947865,"zip":11225,"librarysystem":"Brooklyn Public Library ","phone":"t. 718-773-1180","address":"560 New York Ave. at Maple St.","lat":40.661074,"libraryname":"Crown Heights","state":"NY"}},{"type":"Feature","id":"a65vjt94qrjl","geometry":{"type":"Point","coordinates":[-72.477367,41.01333]},"properties":{"city":"Cutchogue","lon":-72.477367,"zip":11935,"librarysystem":"Suffolk County Public Libraries","phone":"(631) 734-6360","address":"Main Road, PO Box 935","lat":41.01333,"libraryname":"Cutchogue-New Suffolk Free Library","state":"NY"}},{"type":"Feature","id":"a65vjt0p20ks","geometry":{"type":"Point","coordinates":[-73.873844,40.67256]},"properties":{"city":"Brooklyn","lon":-73.873844,"zip":11208,"librarysystem":"Brooklyn Public Library ","phone":"t. 718-277-6004","address":"1197 Sutter Ave. at Crystal St.","lat":40.67256,"libraryname":"Cypress Hills","state":"NY"}},{"type":"Feature","id":"a65vjt1uha1g","geometry":{"type":"Point","coordinates":[-73.812062,42.261856]},"properties":{"city":"Athens","lon":-73.812062,"zip":12015,"librarysystem":"Mid-Hudson Library System","phone":"518.945.1417 ","address":"80 Second Street","lat":42.261856,"libraryname":"D.R. Evarts Library","state":"NY"}},{"type":"Feature","id":"a65vjt0uzipj","geometry":{"type":"Point","coordinates":[-79.333585,42.480735]},"properties":{"city":"Dunkirk","lon":-79.333585,"zip":14048,"librarysystem":"Chautauqua - Cattaraugus Library System","phone":"716-366-2511","address":"536 Central Ave.","lat":42.480735,"libraryname":"DUNKIRK FREE LIBRARY","state":"NY"}},{"type":"Feature","id":"a65vjt8oa17p","geometry":{"type":"Point","coordinates":[-74.549676,41.848992]},"properties":{"city":"Grahamsville","lon":-74.549676,"zip":12740,"librarysystem":"Ramapo Catskill Library System","phone":"Phone: 845-985-7233 ","address":"328 Main Street","lat":41.848992,"libraryname":"Daniel Pierce Library","state":"NY"}},{"type":"Feature","id":"a65vjt1pwrsj","geometry":{"type":"Point","coordinates":[-73.724564,44.721806]},"properties":{"city":"Dannemora","lon":-73.724564,"zip":12929,"librarysystem":"Clinton-Essex-Franklin Library System","phone":"(518) 492-7005","address":"1168 Cook St.","lat":44.721806,"libraryname":"Dannemora Free Library","state":"NY"}},{"type":"Feature","id":"a65vjt1jhp41","geometry":{"type":"Point","coordinates":[-75.893296,40.156048]},"properties":{"city":"Dansville","lon":-75.893296,"zip":14437,"librarysystem":"Pioneer Library System  ","phone":"Phone: 585-335-6720","address":"200 Main Street","lat":40.156048,"libraryname":"Dansville Public Library  ","state":"NY"}},{"type":"Feature","id":"a65vjt2ozhbm","geometry":{"type":"Point","coordinates":[-79.331237,42.440719]},"properties":{"city":"Fredonia","lon":-79.331237,"zip":14063,"librarysystem":"Chautauqua - Cattaraugus Library System","phone":"Phone: (716) 672-8051 ","address":"7 Day Street","lat":42.440719,"libraryname":"Darwin R.Barker Library Association","state":"NY"}},{"type":"Feature","id":"a65vjsy50fo3","geometry":{"type":"Point","coordinates":[-73.928241,40.695023]},"properties":{"city":"Brooklyn","lon":-73.928241,"zip":11221,"librarysystem":"Brooklyn Public Library ","phone":"t. 718-455-3898","address":"790 Bushwick Ave. at DeKalb Ave.","lat":40.695023,"libraryname":"DeKalb","state":"NY"}},{"type":"Feature","id":"a65vjt7mvjss","geometry":{"type":"Point","coordinates":[-75.876497,42.777515]},"properties":{"city":"DeRuyter","lon":-75.876497,"zip":13052,"librarysystem":"Mid-York Library System","phone":"(315) 852-6262","address":"Town Hall Seminary St. ","lat":42.777515,"libraryname":"DeRuyter Free Library  ","state":"NY"}},{"type":"Feature","id":"a65vjtbhc7l1","geometry":{"type":"Point","coordinates":[-76.390613,40.629194]},"properties":{"city":"DeWitt","lon":-76.390613,"zip":13214,"librarysystem":"Onondaga County Public Libraries","phone":"(315) 446-3578","address":"3649 Erie Blvd. East","lat":40.629194,"libraryname":"DeWitt Community Library","state":"NY"}},{"type":"Feature","id":"a65vjsz1isie","geometry":{"type":"Point","coordinates":[-75.429369,42.9946]},"properties":{"city":"Deansboro","lon":-75.429369,"zip":13328,"librarysystem":"Mid-York Library System","phone":"(315) 841-4888","address":"Marshall Community Ctr.","lat":42.9946,"libraryname":"Deansboro Public Library - Branch  ","state":"NY"}},{"type":"Feature","id":"a65vjsvz95so","geometry":{"type":"Point","coordinates":[-73.323119,40.760034]},"properties":{"city":"Deer Park","lon":-73.323119,"zip":11729,"librarysystem":"Suffolk County Public Libraries","phone":"(631) 586-3000","address":"44 Lake Avenue","lat":40.760034,"libraryname":"Deer Park Public Library","state":"NY"}},{"type":"Feature","id":"a65vjt0i0jvl","geometry":{"type":"Point","coordinates":[-75.057296,41.765835]},"properties":{"city":"Callicoon ","lon":-75.057296,"zip":12723,"librarysystem":"Ramapo Catskill Library System","phone":"845-887-4040","address":"45 Lower Main St.","lat":41.765835,"libraryname":"Delaware Free Branch","state":"NY"}},{"type":"Feature","id":"a65vjsvz0se2","geometry":{"type":"Point","coordinates":[-78.479524,42.491445]},"properties":{"city":"Delevan","lon":-78.479524,"zip":14202,"librarysystem":"Chautauqua - Cattaraugus Library System","phone":"Phone: 716-492-4961","address":"28 School Street","lat":42.491445,"libraryname":"Delevan-Yorkshire Public Library","state":"NY"}},{"type":"Feature","id":"a65vjt76ilgm","geometry":{"type":"Point","coordinates":[-73.918456,41.040111]},"properties":{"city":"Piermont","lon":-73.918456,"zip":10968,"librarysystem":"Ramapo Catskill Library System","phone":"Phone: 845-359-4595 ","address":"25 Flywheel Park West","lat":41.040111,"libraryname":"Dennis P. McHugh Piermont Public Library","state":"NY"}},{"type":"Feature","id":"a65vjswmyjq2","geometry":{"type":"Point","coordinates":[-75.425148,42.060918]},"properties":{"city":"Deposit","lon":-75.425148,"zip":13754,"librarysystem":"Four County Library System","phone":"607-467-2577","address":"159 Front Street","lat":42.060918,"libraryname":"Deposit Free Library","state":"NY"}},{"type":"Feature","id":"a65vjt9z8nm7","geometry":{"type":"Point","coordinates":[-75.187168,43.327895]},"properties":{"city":"Remsen","lon":-75.187168,"zip":13438,"librarysystem":"Mid-York Library System","phone":"(315) 831-5651","address":"9639 Main St.","lat":43.327895,"libraryname":"Didymus Thomas Memorial Library  ","state":"NY"}},{"type":"Feature","id":"a65vjt8e0cw2","geometry":{"type":"Point","coordinates":[-73.876756,41.013521]},"properties":{"city":"Dobbs Ferry","lon":-73.876756,"zip":10522,"librarysystem":"Westchester Library System","phone":"Telephone: (914) 693-6614","address":"55 Main Street","lat":41.013521,"libraryname":"Dobbs Ferry Public Library","state":"NY"}},{"type":"Feature","id":"a65vjsyagi11","geometry":{"type":"Point","coordinates":[-73.502704,44.809044]},"properties":{"city":"West Chazy","lon":-73.502704,"zip":12992,"librarysystem":"Clinton-Essex-Franklin Library System","phone":"(518) 493-6131","address":"9 Route 348","lat":44.809044,"libraryname":"Dodge Library of West Chazy","state":"NY"}},{"type":"Feature","id":"a65vjt1au8zv","geometry":{"type":"Point","coordinates":[-73.363947,44.989685]},"properties":{"city":"Rouses Point","lon":-73.363947,"zip":12979,"librarysystem":"Clinton-Essex-Franklin Library System","phone":"(518) 297-6242","address":"144 Lake St.","lat":44.989685,"libraryname":"Dodge Memorial Library","state":"NY"}},{"type":"Feature","id":"a65vjsy8aqzj","geometry":{"type":"Point","coordinates":[-74.769966,43.102862]},"properties":{"city":"Dolgeville","lon":-74.769966,"zip":13329,"librarysystem":"Mid-York Library System","phone":"(315) 429-3421","address":"20 N. Main St.","lat":43.102862,"libraryname":"Dolgeville-Manheim Public Library  ","state":"NY"}},{"type":"Feature","id":"a65vjt32i3ng","geometry":{"type":"Point","coordinates":[-74.100997,40.590525]},"properties":{"city":"New York","lon":-74.100997,"zip":10304,"librarysystem":"The New York Public Library","phone":"(718) 351-1444 ","address":"1617 Richmond Road ","lat":40.590525,"libraryname":"Dongan Hills Branch","state":"NY"}},{"type":"Feature","id":"a65vjt8wlqxz","geometry":{"type":"Point","coordinates":[-73.976739,40.760639]},"properties":{"city":"New York","lon":-73.976739,"zip":10019,"librarysystem":"The New York Public Library","phone":"(212) 621-0619","address":"20 West 53rd Street","lat":40.760639,"libraryname":"Donnell Library Center","state":"NY"}},{"type":"Feature","id":"a65vjt6s8r9v","geometry":{"type":"Point","coordinates":[-73.738162,40.767962]},"properties":{"city":"Little Neck","lon":-73.738162,"zip":11363,"librarysystem":"Queens Library","phone":"(718) 225-8414","address":"249-01 Northern Boulevard","lat":40.767962,"libraryname":"Douglaston/Little Neck","state":"NY"}},{"type":"Feature","id":"a65vjt2teomg","geometry":{"type":"Point","coordinates":[-73.56329,41.648239]},"properties":{"city":"Wingdale","lon":-73.56329,"zip":12594,"librarysystem":"Mid-Hudson Library System","phone":"845.832.6605","address":"1797 Route 22","lat":41.648239,"libraryname":"Dover Plains  Library","state":"NY"}},{"type":"Feature","id":"a65vjt4hlxxg","geometry":{"type":"Point","coordinates":[-73.921663,42.79619]},"properties":{"city":"Schenectady","lon":-73.921663,"zip":12304,"librarysystem":"Mohawk Valley Library System","phone":"Ph/Fax 386-2242","address":"1331 State St.","lat":42.79619,"libraryname":"Duane Branch ","state":"NY"}},{"type":"Feature","id":"a65vjsys5gb1","geometry":{"type":"Point","coordinates":[-78.823637,42.843919]},"properties":{"city":"Buffalo","lon":-78.823637,"zip":14220,"librarysystem":"BUFFALO AND ERIE COUNTY PUBLIC LIBRARY","phone":"716-823-1854","address":"2010 South Park Avenue","lat":42.843919,"libraryname":"Dudley Branch Library","state":"NY"}},{"type":"Feature","id":"a65vjt9dbe8d","geometry":{"type":"Point","coordinates":[-75.289659,43.120829]},"properties":{"city":"Whitesboro","lon":-75.289659,"zip":13492,"librarysystem":"Mid-York Library System","phone":"(315) 736-9734","address":"76 Main St","lat":43.120829,"libraryname":"Dunham Public Library  ","state":"NY"}},{"type":"Feature","id":"a65vjt9bzmgv","geometry":{"type":"Point","coordinates":[-74.011684,40.616314]},"properties":{"city":"Brooklyn","lon":-74.011684,"zip":11228,"librarysystem":"Brooklyn Public Library ","phone":"t. 718-748-6261","address":"8202 13th Ave. (@ 82nd St.)","lat":40.616314,"libraryname":"Dyker","state":"NY"}},{"type":"Feature","id":"a65vjt6juwq7","geometry":{"type":"Point","coordinates":[-73.563634,40.720055]},"properties":{"city":"East Meadow","lon":-73.563634,"zip":11554,"librarysystem":"Nassau Library System","phone":"794-2570 ","address":"1886 Front St. ","lat":40.720055,"libraryname":"EAST MEADOW PUBLIC LIBRARY","state":"NY"}},{"type":"Feature","id":"a65vjt0yozhb","geometry":{"type":"Point","coordinates":[-73.665672,40.642334]},"properties":{"city":"East Rockaway","lon":-73.665672,"zip":11518,"librarysystem":"Nassau Library System","phone":"599-1664 ","address":"477 Atlantic Ave. ","lat":40.642334,"libraryname":"EAST ROCKAWAY PUBLIC LIBRARY","state":"NY"}},{"type":"Feature","id":"a65vjt0eppzu","geometry":{"type":"Point","coordinates":[-73.63833,40.756752]},"properties":{"city":"East Williston","lon":-73.63833,"zip":11596,"librarysystem":"Nassau Library System","phone":"741-1213 ","address":"2 Prospect Street ","lat":40.756752,"libraryname":"EAST WILLISTON PUBLIC LIBRARY","state":"NY"}},{"type":"Feature","id":"a65vjswbgri3","geometry":{"type":"Point","coordinates":[-73.706891,40.708136]},"properties":{"city":"Elmont","lon":-73.706891,"zip":11003,"librarysystem":"Nassau Library System","phone":"354-5280 ","address":"700 Hempstead Turnpike. ","lat":40.708136,"libraryname":"ELMONT PUBLIC LIBRARY","state":"NY"}},{"type":"Feature","id":"a65vjt5fuk5f","geometry":{"type":"Point","coordinates":[-78.688217,41.574967]},"properties":{"city":"Bliss","lon":-78.688217,"zip":14024,"librarysystem":"Pioneer Library System  ","phone":"Phone: 585-322-7701","address":"3413 School Street","lat":41.574967,"libraryname":"Eagle Free Library  ","state":"NY"}},{"type":"Feature","id":"a65vjtayhxv5","geometry":{"type":"Point","coordinates":[-75.546537,42.74487]},"properties":{"city":"Earlville","lon":-75.546537,"zip":13332,"librarysystem":"Mid-York Library System","phone":"(315) 691-5931","address":"N. Main St.","lat":42.74487,"libraryname":"Earlville Free Library  ","state":"NY"}},{"type":"Feature","id":"a65vjt6s8fad","geometry":{"type":"Point","coordinates":[-74.005612,40.729977]},"properties":{"city":"New York","lon":-74.005612,"zip":10014,"librarysystem":"The New York Public Library","phone":"(212) 929-0815 ","address":"66 Leroy Street ","lat":40.729977,"libraryname":"Early Childhood Resource & Information Center","state":"NY"}},{"type":"Feature","id":"a65vjt8w8a00","geometry":{"type":"Point","coordinates":[-78.805172,42.871742]},"properties":{"city":"Buffalo","lon":-78.805172,"zip":14206,"librarysystem":"BUFFALO AND ERIE COUNTY PUBLIC LIBRARY","phone":"716-823-5626","address":"1929 Clinton Street","lat":42.871742,"libraryname":"East Clinton Branch Library","state":"NY"}},{"type":"Feature","id":"a65vjt96nx02","geometry":{"type":"Point","coordinates":[-78.812954,42.922512]},"properties":{"city":"Buffalo","lon":-78.812954,"zip":14215,"librarysystem":"BUFFALO AND ERIE COUNTY PUBLIC LIBRARY","phone":"716-896-4433","address":"1187 E. Delavan Avenue","lat":42.922512,"libraryname":"East Delavan Branch Library","state":"NY"}},{"type":"Feature","id":"a65vjtaoj78i","geometry":{"type":"Point","coordinates":[-73.874062,40.762636]},"properties":{"city":"East Elmhurst","lon":-73.874062,"zip":11369,"librarysystem":"Queens Library","phone":"(718) 424-2619","address":"95-06 Astoria Boulevard","lat":40.762636,"libraryname":"East Elmhurst","state":"NY"}},{"type":"Feature","id":"a65vjt8nqdyb","geometry":{"type":"Point","coordinates":[-73.807117,41.574447]},"properties":{"city":"Hopewell Junction","lon":-73.807117,"zip":12533,"librarysystem":"Mid-Hudson Library System","phone":"845.221.9943","address":"348 Route 376","lat":41.574447,"libraryname":"East Fishkill Community Library","state":"NY"}},{"type":"Feature","id":"a65vjt2w324v","geometry":{"type":"Point","coordinates":[-73.914028,40.661643]},"properties":{"city":"Brooklyn","lon":-73.914028,"zip":11212,"librarysystem":"Brooklyn Public Library ","phone":"t. 718-922-0927","address":"9612 Church Ave. at. Rockaway Pkwy.","lat":40.661643,"libraryname":"East Flatbush","state":"NY"}},{"type":"Feature","id":"a65vjsybqw98","geometry":{"type":"Point","coordinates":[-73.784881,40.757761]},"properties":{"city":"Flushing","lon":-73.784881,"zip":11358,"librarysystem":"Queens Library","phone":"(718) 357-6643","address":"196-36 Northern Boulevard","lat":40.757761,"libraryname":"East Flushing","state":"NY"}},{"type":"Feature","id":"a65vjt0qazr5","geometry":{"type":"Point","coordinates":[-73.694821,42.619386]},"properties":{"city":"East Greenbush","lon":-73.694821,"zip":12061,"librarysystem":"Upper Hudson Library System","phone":"(518) 477-7476","address":"10 Community Way","lat":42.619386,"libraryname":"East Greenbush Community Library ","state":"NY"}},{"type":"Feature","id":"a65vjszel1ow","geometry":{"type":"Point","coordinates":[-72.190926,40.958118]},"properties":{"city":"East Hampton","lon":-72.190926,"zip":11937,"librarysystem":"Suffolk County Public Libraries","phone":"(631) 324-0222","address":"159 Main Street","lat":40.958118,"libraryname":"East Hampton Library","state":"NY"}},{"type":"Feature","id":"a65vjsxdqo4g","geometry":{"type":"Point","coordinates":[-73.173268,40.735153]},"properties":{"city":"East Islip","lon":-73.173268,"zip":11730,"librarysystem":"Suffolk County Public Libraries","phone":"(631) 581-9200","address":"381 East Main Street","lat":40.735153,"libraryname":"East Islip Public Library","state":"NY"}},{"type":"Feature","id":"a65vjt1ql0lz","geometry":{"type":"Point","coordinates":[-73.324768,40.877739]},"properties":{"city":"East Northport","lon":-73.324768,"zip":11731,"librarysystem":"Suffolk County Public Libraries","phone":"(631) 261-2313","address":"185 Larkfield Road","lat":40.877739,"libraryname":"East Northport Library","state":"NY"}},{"type":"Feature","id":"a65vjt8juw5p","geometry":{"type":"Point","coordinates":[-77.485934,43.11244]},"properties":{"city":"East Rochester","lon":-77.485934,"zip":14445,"librarysystem":"Monroe County Library System","phone":"(585) 586-8302","address":"111 West Elm Street","lat":43.11244,"libraryname":"East Rochester Public Library","state":"NY"}},{"type":"Feature","id":"a65vjt72ohef","geometry":{"type":"Point","coordinates":[-76.499489,40.651245]},"properties":{"city":"East Syracuse","lon":-76.499489,"zip":13057,"librarysystem":"Onondaga County Public Libraries","phone":"(315) 437-4841","address":"4990 James St.","lat":40.651245,"libraryname":"East Syracuse Free Library ","state":"NY"}},{"type":"Feature","id":"a65vjt9qz28y","geometry":{"type":"Point","coordinates":[-73.845716,40.870366]},"properties":{"city":"New York","lon":-73.845716,"zip":10469,"librarysystem":"The New York Public Library","phone":"(718) 653-3292 ","address":"1385 East Gun Hill Road ","lat":40.870366,"libraryname":"Eastchester Branch","state":"NY"}},{"type":"Feature","id":"a65vjt05dogt","geometry":{"type":"Point","coordinates":[-73.811469,40.957041]},"properties":{"city":"Eastchester","lon":-73.811469,"zip":10709,"librarysystem":"Westchester Library System","phone":"Telephone: (914) 793-5055","address":"11 Oak Ridge Place","lat":40.957041,"libraryname":"Eastchester Public Library","state":"NY"}},{"type":"Feature","id":"a65vjswn8dmv","geometry":{"type":"Point","coordinates":[-73.933556,40.668568]},"properties":{"city":"Brooklyn","lon":-73.933556,"zip":11213,"librarysystem":"Brooklyn Public Library ","phone":"t. 718-953-4225","address":"1044 Eastern Pkwy. at Schenectady Ave.","lat":40.668568,"libraryname":"Eastern Parkway","state":"NY"}},{"type":"Feature","id":"a65vjswzn05e","geometry":{"type":"Point","coordinates":[-73.933556,40.668568]},"properties":{"city":"Brooklyn","lon":-73.933556,"zip":11213,"librarysystem":"Brooklyn Public Library ","phone":"t. 718-778-9330","address":"1044 Eastern Parkway ","lat":40.668568,"libraryname":"Eastern Parkway Learning Center","state":"NY"}},{"type":"Feature","id":"a65vjsx27xc6","geometry":{"type":"Point","coordinates":[-73.550016,43.012999]},"properties":{"city":"Greenwich","lon":-73.550016,"zip":12834,"librarysystem":"Southern Adirondack Library System","phone":"(518) 692-2253","address":"1074 State Route 40 S","lat":43.012999,"libraryname":"Easton Library","state":"NY"}},{"type":"Feature","id":"a65vjt8xfcyf","geometry":{"type":"Point","coordinates":[-78.888918,42.652284]},"properties":{"city":"Eden","lon":-78.888918,"zip":14057,"librarysystem":"BUFFALO AND ERIE COUNTY PUBLIC LIBRARY","phone":"716-992-4028","address":"2901 East Church Street","lat":42.652284,"libraryname":"Eden Library","state":"NY"}},{"type":"Feature","id":"a65vjtb4yyc9","geometry":{"type":"Point","coordinates":[-73.840875,40.888714]},"properties":{"city":"New York","lon":-73.840875,"zip":10466,"librarysystem":"The New York Public Library","phone":"(718) 798-3355 ","address":"1255 East 233rd Street ","lat":40.888714,"libraryname":"Edenwald Branch","state":"NY"}},{"type":"Feature","id":"a65vjtbieyzn","geometry":{"type":"Point","coordinates":[-76.822588,42.676802]},"properties":{"city":"Ovid","lon":-76.822588,"zip":14521,"librarysystem":"Finger Lakes Library System","phone":"607-869-3031","address":"7169 North Main Street ","lat":42.676802,"libraryname":"Edith B. Ford Memorial Library","state":"NY"}},{"type":"Feature","id":"a65vjt5hi6s0","geometry":{"type":"Point","coordinates":[-75.244671,42.697826]},"properties":{"city":"Edmeston","lon":-75.244671,"zip":13335,"librarysystem":"Four County Library System","phone":"607-965-8208","address":"6 West Street","lat":42.697826,"libraryname":"Edmeston Free Library","state":"NY"}},{"type":"Feature","id":"a65vjt7v1eoi","geometry":{"type":"Point","coordinates":[-75.964873,41.545677]},"properties":{"city":"Elbridge","lon":-75.964873,"zip":13060,"librarysystem":"Onondaga County Public Libraries","phone":"(315) 689-7111","address":"East Main St.","lat":41.545677,"libraryname":"Elbridge Free Library","state":"NY"}},{"type":"Feature","id":"a65vjsxqjf3m","geometry":{"type":"Point","coordinates":[-73.584624,44.213044]},"properties":{"city":"Elizabethtown","lon":-73.584624,"zip":12932,"librarysystem":"Clinton-Essex-Franklin Library System","phone":"(518) 873-2670","address":"River Street","lat":44.213044,"libraryname":"Elizabethtown  Library Assoc.","state":"NY"}},{"type":"Feature","id":"a65vjt6ty2xi","geometry":{"type":"Point","coordinates":[-73.837888,44.893801]},"properties":{"city":"Ellenburg Center","lon":-73.837888,"zip":12934,"librarysystem":"Clinton-Essex-Franklin Library System","phone":"(518) 594-7489","address":"Main Street","lat":44.893801,"libraryname":"Ellenburg Center Reading Center","state":"NY"}},{"type":"Feature","id":"a65vjt34zxxq","geometry":{"type":"Point","coordinates":[-73.801897,44.905277]},"properties":{"city":"Ellenburg Depot","lon":-73.801897,"zip":12935,"librarysystem":"Clinton-Essex-Franklin Library System","phone":"(518) 594-7314 ","address":"5139 Rt. 11","lat":44.905277,"libraryname":"Ellenburg Sarah A. Munsil Free Library","state":"NY"}},{"type":"Feature","id":"a65vjswk5pby","geometry":{"type":"Point","coordinates":[-74.397717,41.718147]},"properties":{"city":"Ellenville","lon":-74.397717,"zip":12428,"librarysystem":"Ramapo Catskill Library System","phone":"Phone: (845)647-5530 ","address":"40 Center St.","lat":41.718147,"libraryname":"Ellenville Public Library & Museum","state":"NY"}},{"type":"Feature","id":"a65vjt2z2rq1","geometry":{"type":"Point","coordinates":[-74.397717,41.718147]},"properties":{"city":"Ellenville","lon":-74.397717,"zip":12428,"librarysystem":"Mid-Hudson Library System","phone":"(845)647-5530 ","address":"40 Center St.","lat":41.718147,"libraryname":"Ellenville Public Library & Museum","state":"NY"}},{"type":"Feature","id":"a65vjt2odhct","geometry":{"type":"Point","coordinates":[-78.675079,42.28386]},"properties":{"city":"Ellicottville","lon":-78.675079,"zip":14731,"librarysystem":"Chautauqua - Cattaraugus Library System","phone":"716-699-2842","address":"6499 Maples Road","lat":42.28386,"libraryname":"Ellicottville Memorial Library","state":"NY"}},{"type":"Feature","id":"a65vjt3w821c","geometry":{"type":"Point","coordinates":[-78.636834,42.821635]},"properties":{"city":"Elma","lon":-78.636834,"zip":14059,"librarysystem":"BUFFALO AND ERIE COUNTY PUBLIC LIBRARY","phone":"716-652-2719","address":"1860 Bowen Road","lat":42.821635,"libraryname":"Elma Public Library","state":"NY"}},{"type":"Feature","id":"a65vjt2ubhyo","geometry":{"type":"Point","coordinates":[-73.877287,40.738536]},"properties":{"city":"Elmhurst","lon":-73.877287,"zip":11373,"librarysystem":"Queens Library","phone":"(718) 271-1020","address":"86-01 Broadway","lat":40.738536,"libraryname":"Elmhurst  (ALC)","state":"NY"}},{"type":"Feature","id":"a65vjsvgx9yr","geometry":{"type":"Point","coordinates":[-74.084657,41.748276]},"properties":{"city":"New Paltz","lon":-74.084657,"zip":12561,"librarysystem":"Mid-Hudson Library System","phone":"845.255.5030 ","address":"93 Main Street","lat":41.748276,"libraryname":"Elting Memorial  Library","state":"NY"}},{"type":"Feature","id":"a65vjt0dv6cg","geometry":{"type":"Point","coordinates":[-73.323023,40.83931]},"properties":{"city":"Elwood","lon":-73.323023,"zip":11731,"librarysystem":"Suffolk County Public Libraries","phone":"(631) 499-3722","address":"3027 Jericho Turnpike","lat":40.83931,"libraryname":"Elwood Public Library","state":"NY"}},{"type":"Feature","id":"a65vjsz8gjai","geometry":{"type":"Point","coordinates":[-73.111677,40.945429]},"properties":{"city":"Setauket","lon":-73.111677,"zip":11733,"librarysystem":"Suffolk County Public Libraries","phone":"(631) 941-4080","address":"120 Main Street","lat":40.945429,"libraryname":"Emma S. Clark Memorial Library","state":"NY"}},{"type":"Feature","id":"a65vjt4tdu5u","geometry":{"type":"Point","coordinates":[-73.982488,40.7384]},"properties":{"city":"New York","lon":-73.982488,"zip":10010,"librarysystem":"The New York Public Library","phone":"(212) 679-2645 ","address":"228 East 23rd Street ","lat":40.7384,"libraryname":"Epiphany Branch","state":"NY"}},{"type":"Feature","id":"a65vjt4o9ql9","geometry":{"type":"Point","coordinates":[-75.343404,43.48324]},"properties":{"city":"Boonville","lon":-75.343404,"zip":13309,"librarysystem":"Mid-York Library System","phone":"(315) 942-4834","address":"Schuyler Street","lat":43.48324,"libraryname":"Erwin Library and Institute  ","state":"NY"}},{"type":"Feature","id":"a65vjt1tsm0y","geometry":{"type":"Point","coordinates":[-74.694572,41.656733]},"properties":{"city":"Monticello","lon":-74.694572,"zip":12701,"librarysystem":"Ramapo Catskill Library System","phone":"Phone: (845)794-4660 ","address":"393 Broadway","lat":41.656733,"libraryname":"Ethelbert B. Crawford Public Library","state":"NY"}},{"type":"Feature","id":"a65vjt2gsez0","geometry":{"type":"Point","coordinates":[-73.459334,40.728948]},"properties":{"city":"Farmingdale","lon":-73.459334,"zip":11735,"librarysystem":"Nassau Library System","phone":"249-9090 ","address":"116 Merritts Road ","lat":40.728948,"libraryname":"FARMINGDALE PUBLIC LIBRARY","state":"NY"}},{"type":"Feature","id":"a65vjsy114nn","geometry":{"type":"Point","coordinates":[-73.707272,40.724764]},"properties":{"city":"Floral Park","lon":-73.707272,"zip":11001,"librarysystem":"Nassau Library System","phone":"326-6330 ","address":"17 Caroline Place ","lat":40.724764,"libraryname":"FLORAL PARK PUBLIC LIBRARY","state":"NY"}},{"type":"Feature","id":"a65vjsy29bmx","geometry":{"type":"Point","coordinates":[-73.670822,40.707538]},"properties":{"city":"Franklin Square","lon":-73.670822,"zip":11010,"librarysystem":"Nassau Library System","phone":"488-3444 ","address":"19 Lincoln Road ","lat":40.707538,"libraryname":"FRANKLIN SQUARE PUBLIC LIBRARY","state":"NY"}},{"type":"Feature","id":"a65vjsx3ss8q","geometry":{"type":"Point","coordinates":[-73.586675,40.653203]},"properties":{"city":"Freeport","lon":-73.586675,"zip":11520,"librarysystem":"Nassau Library System","phone":"379-3274 ","address":"144 W. Merrick Road ","lat":40.653203,"libraryname":"FREEPORT MEMORIAL LIBRARY","state":"NY"}},{"type":"Feature","id":"a65vjt65g4t7","geometry":{"type":"Point","coordinates":[-76.703614,43.31516]},"properties":{"city":"Fair Haven","lon":-76.703614,"zip":13064,"librarysystem":"Finger Lakes Library System","phone":"Tel. 315-947-5851","address":"Richmond Ave.","lat":43.31516,"libraryname":"Fair Haven Public Library","state":"NY"}},{"type":"Feature","id":"a65vjt0pgxph","geometry":{"type":"Point","coordinates":[-79.828891,40.405375]},"properties":{"city":"Syracuse","lon":-79.828891,"zip":13219,"librarysystem":"Onondaga County Public Libraries","phone":"(315) 487-8933","address":"406 Chapel Dr.","lat":40.405375,"libraryname":"Fairmount Community Library","state":"NY"}},{"type":"Feature","id":"a65vjt792wxl","geometry":{"type":"Point","coordinates":[-77.443805,43.10071]},"properties":{"city":"Fairport","lon":-77.443805,"zip":14450,"librarysystem":"Monroe County Library System","phone":"(585) 223-9091","address":"1 Village Landing","lat":43.10071,"libraryname":"Fairport Public Library","state":"NY"}},{"type":"Feature","id":"a65vjsy9jhpr","geometry":{"type":"Point","coordinates":[-74.649432,42.148567]},"properties":{"city":"Margaretville","lon":-74.649432,"zip":12455,"librarysystem":"Four County Library System","phone":"845-586-3791","address":"43 Walnut Street","lat":42.148567,"libraryname":"Fairview Public Library","state":"NY"}},{"type":"Feature","id":"a65vjtardz8s","geometry":{"type":"Point","coordinates":[-79.199548,42.11739]},"properties":{"city":"Falconer","lon":-79.199548,"zip":14733,"librarysystem":"Chautauqua - Cattaraugus Library System","phone":"716-665-3504","address":"101 W. Main Street  ","lat":42.11739,"libraryname":"Falconer Public Library","state":"NY"}},{"type":"Feature","id":"a65vjt3bqt1m","geometry":{"type":"Point","coordinates":[-74.629727,41.707826]},"properties":{"city":"South Fallsburg","lon":-74.629727,"zip":12779,"librarysystem":"Ramapo Catskill Library System","phone":"Phone: (845)436-6067 ","address":"12 Railroad Plaza","lat":41.707826,"libraryname":"Fallsburg Library","state":"NY"}},{"type":"Feature","id":"a65vjsz6rz5p","geometry":{"type":"Point","coordinates":[-73.747619,40.60876]},"properties":{"city":"Far Rockaway","lon":-73.747619,"zip":11691,"librarysystem":"Queens Library","phone":"(718) 327-2549","address":"1637 Central Avenue","lat":40.60876,"libraryname":"Far Rockaway","state":"NY"}},{"type":"Feature","id":"a65vjt4j2bwr","geometry":{"type":"Point","coordinates":[-79.137379,42.24658]},"properties":{"city":"Ellington","lon":-79.137379,"zip":14732,"librarysystem":"Chautauqua - Cattaraugus Library System","phone":"Phone: (716) 287-2945","address":"760 Thornton Rd","lat":42.24658,"libraryname":"Farman Free Library","state":"NY"}},{"type":"Feature","id":"a65vjt9i51kq","geometry":{"type":"Point","coordinates":[-74.984514,40.16273]},"properties":{"city":"Fayetteville","lon":-74.984514,"zip":13066,"librarysystem":"Onondaga County Public Libraries","phone":"(315) 637-6374","address":"300 Orchard St.","lat":40.16273,"libraryname":"Fayetteville Free Library","state":"NY"}},{"type":"Feature","id":"a65vjt4kinkc","geometry":{"type":"Point","coordinates":[-75.88906,42.146503]},"properties":{"city":"Binghamton","lon":-75.88906,"zip":13901,"librarysystem":"Four County Library System","phone":"607-724-8649","address":"1062 Chenango Street","lat":42.146503,"libraryname":"Fenton Free Library","state":"NY"}},{"type":"Feature","id":"a65vjt37fanb","geometry":{"type":"Point","coordinates":[-79.734856,42.119525]},"properties":{"city":"Findley Lake","lon":-79.734856,"zip":14736,"librarysystem":"Chautauqua - Cattaraugus Library System","phone":"(716) 769.6568","address":"2883 North Rd.","lat":42.119525,"libraryname":"Findley Community Library","state":"NY"}},{"type":"Feature","id":"a65vjt9v56ug","geometry":{"type":"Point","coordinates":[-74.046962,41.110395]},